numero,Lat,Long,Nom,Ville,Pays,Type,star,isReservable,horaires,adresse,photo
0,10.2104009,56.1587522,La Cabra Coffee Roasters,8000 Aarhus,Danemark,coffee_shop,,,,Graven 20,https://media-cdn.tripadvisor.com/media/photo-p/0f/2f/c5/ac/la-cabra-coffee.jpg
1,127.0409932,37.5267628,Tea Collective,Seoul,Korea,coffee_shop,,,,16  Dosan-daero 59-gil  Gangnam-gu ,https://cdn.herenow.city/assets/uploads/sites/9/2018/01/02180912/re_41tea05-765x510.jpg
2,,,Boot Café,75003,France,coffee_shop,,,,19 Rue du Pont aux Choux,https://24hkto1dz1v3ddyf93n0ye45-wpengine.netdna-ssl.com/wp-content/uploads/2018/04/Kinfolk_ParisCityGuide_BootCafe_03-1024x692.jpg
3,2.3481741,48.8647839,Kodama,75002,France,coffee_shop,,,,30 Rue Tiquetonne,https://i.pinimg.com/736x/35/76/d4/3576d423693fe923932c857f90ca0501.jpg
4,2.3373715,48.8655242,Cafe Kitsune,75001,France,coffee_shop,,,,51 Gal de Montpensier,https://www.maisonkitsune.com/mk/wp-content/uploads/2018/05/cafe-kitsune-1.jpg
5,2.3530365,48.8646364,Partisan Café Artisanal,75003,France,coffee_shop,,,,36 Rue de Turbigo,https://cdn3.gustave-et-rosalie.com/media/cache/share_image/upload/article/65a05cdc68-coffee-shop-paris-partisan.jpg
6,2.3466129,48.8806912,roche coffee shop,75009,France,coffee_shop,,,,58 Rue Marguerite de Rochechouart,https://images.squarespace-cdn.com/content/v1/5736656b86db434ac61fcc34/1552179916138-DVPOS1FH94JC01BIJIAW/image-asset.octet-stream?format=500w
7,-118.287282,34.1065541,Maru Coffee,Los Angeles,US,coffee_shop,,,,1936 Hillhurst Ave,https://cdn.shopify.com/s/files/1/0028/1067/5315/files/190805_partner_tumblers_marucoffee_5.jpg
8,-118.2303882,34.0309539,Maru Coffee,Los Angeles,US,coffee_shop,,,,1019 S Santa Fe Ave,https://cdn.vox-cdn.com/thumbor/iyVmipsHCI8h1rCaH5ZxM6NxyLc=/0x0:1080x1081/1200x800/filters:focal(454x455:626x627)/cdn.vox-cdn.com/uploads/chorus_image/image/58425591/maru-coffee-los-feliz.0.jpg
9,2.3553145,48.8903077,Lomi,75018,France,coffee_shop,oui,,,3 ter Rue Marcadet,https://mysweetparisianlife.files.wordpress.com/2014/06/dscn2544.jpg
10,12.5422628,55.693661,The Coffee Collective Jægersborggade,Copenhague,Danemark,coffee_shop,,,,Jægersborggade 57  2200 København,https://files.guidedanmark.org/files/382/177762_The_Coffee_Collective_Kristen_Bernikows_Gade_ChrisTonnesen_1.jpg?width=1024
11,12.5335216,55.6870991,The Coffee Collective Frederiksberg,Copenhague,Danemark,coffee_shop,,,,Godthåbsvej 34B  2000 Frederiksberg,https://www.thestyleoffice.today/wp-content/uploads/2015/06/IMG_0479-e1434437545593.jpg
12,12.5824585,55.6800838,The Coffee Collective Bernikow,Copenhague,Danemark,coffee_shop,,,,Kristen Bernikows Gade 2  1105 København,https://sprudge.com/wp-content/uploads/2017/08/TCC21_newshop_outdoor_patio2_jones-1200x800.jpg
13,12.581826,55.677421,CUB Coffee Bar Boldhusgade,Copenhague,Danemark,coffee_shop,,,,Boldhusgade 6  1062 København,https://media-cdn.tripadvisor.com/media/photo-s/0f/a3/06/f8/inside-the-coffee-shop.jpg
14,2.376747,48.8526863,Passager,75011,France,coffee_shop/brunch,,,,107 Av. Ledru Rollin,https://media-cdn.tripadvisor.com/media/photo-s/12/d2/ed/92/photo0jpg.jpg
15,-0.134837400000038,51.5165531,Omotesando Koffee,London,UK,coffee_shop,,,,8 Newman St,https://i.pinimg.com/originals/80/6d/c2/806dc2adb12673261e64c2982d810867.jpg
16,2.3557431,48.8544402,La Caféothèque de Paris,75004,France,coffee_shop,,,,52 Rue de l'Hôtel de ville,https://www.sortiraparis.com/images/80/89015/536642-le-temple-du-cafe-a-paris-la-cafeotheque-2.jpg
17,2.3690393,48.8562232,BACK IN BLACK by KB Coffee Roasters,75011,France,coffee_shop/brunch,,,,25 Rue Amelot,https://www.it-paris.com/wp-content/uploads/2020/03/back-in-black.jpg
18,2.3817047,48.8751346,Belleville Brûlerie - Paris,75019,France,coffee_shop,,,,14b Rue Lally-Tollendal,https://www.sortiraparis.com/images/58/77153/413319-ouverture-du-quartier-general-de-belleville-brulerie.jpg
19,2.3742482,48.8832539,Belleville Brûlerie - Paris - Le Quartier Général,75019,France,coffee_shop,,,,14b Rue Lally-Tollendal,https://notoire.agency/wp-content/uploads/2019/06/BB-QG_03-min.jpg
20,2.3363585,48.8661837,Télescope,75001,France,coffee_shop,,,,5 Rue Villédo,https://media-cdn.tripadvisor.com/media/photo-s/0a/ce/fa/01/look-for-the-yellow-bike.jpg
21,12.573263,55.6960031,April Coffee Store & Showroom,Copenhague,Danemark,coffee_shop,,,,Ryesgade 86A  2100 København,https://andershusa.com/wp-content/uploads/2020/07/april-coffee-roasters-sleek-new-flagship-store-in-copenhagen-denmark-patrik-rolf-scandinavian-design-japanese-aesthetics-barista-brewing-espresso-best-tips-recommendations-guide-travel-1.jpg
22,-0.1780653,51.5554686,Ginger & White,London,UK,coffee_shop,,,,4a  5a Perrin's Ct,https://londoncafereview.files.wordpress.com/2014/04/20140418_151611.jpg
23,,,ACID BAKEHOUSE,Madrid,Espagne,coffee_shop/boulangerie,,,,Calle de la Magdalena  27,https://www.neo2.com/wp-content/uploads/2021/05/acid-bakehouse-cafe-07.jpg
24,-1.5563939,43.4817177,Colors of Surfing,64200,France,coffee_shop,,,,22 Av. de Verdun,https://www.colorsofsurfing.com/wp-content/uploads/2020/06/good-0.jpg
25,-3.6949265,40.411898,ACID Café,Madrid,Espagne,coffee_shop/boulangerie,,,,C. de la Verónica  9,https://mk0europeancoffmnbn2.kinstacdn.com/wp-content/uploads/city-guides/cafes/1418/acid-cafe-madrid-ig-1.jpg
26,2.3282134,48.8864335,La Main Noire,75018,France,coffee_shop,,,,12 Rue Cavallotti,https://www.foodyparis.com/upload/images/img_post/uploads/galleryreviews/la-main-noire-lab-coffee-shop-1.jpg
27,9.2087887,45.467114,Loste Café,Milano,Italie,coffee_shop/boulangerie,,,,Via Francesco Guicciardini  3,https://placesofourshome.files.wordpress.com/2021/04/milano_placesofours_3.jpg?w=1024
28,2.3402927,48.8908722,Two Doors Coffee-Shop,75018,France,coffee_shop,,,,27 Rue Francœur,https://s3-us-west-2.amazonaws.com/uriji-media-dev/60f0010a1e967713b7b8dca9/images/1626341642.jpeg
29,2.317856,48.887082,Dose Paris • Batignolles,75017,France,coffee_shop/brunch,,,,82 Place du Dr Félix Lobligeois,https://foodetective-production.s3.amazonaws.com/uploads/picture/photo/3de10674-9542-472e-bebb-1a9841424eb1/photo.jpeg
30,2.3233068,48.8917471,Espeletia Café,75017,France,coffee_shop,,,,52 Rue Davy,https://716lavie.com/wp-content/uploads/2020/08/HipstamaticPhoto-617408636.261373.jpg
31,-9.1286418,38.7135217,Copenhagen Coffee Lab & Bakery - Alfama,Lisboa,Portugal,coffee_shop/boulangerie,,,,Escolas Gerais 34,https://lisboacool.com/sites/default/files/styles/ny_article_horizontal__w720xh480_watermark/public/imagens/artigos/lisboa_cool_conviver_copenhagen_coffee_lab03.jpeg?itok=AlxP9cht
32,12.6225053,55.6639537,Copenhagen Coffee Lab,Copenhague,Danemark,coffee_shop,,,,Strandlodsvej 48  2300 København,https://copenhagencoffeelab.com/wp-content/uploads/2021/07/ourbakery.jpg
33,7.0168446,43.5543278,"Copenhagen Coffee Lab - Cannes, Blvd Carnot",6400,France,coffee_shop/boulangerie,,,,1 Bd Carnot,https://10619-2.s.cdn12.com/rests/original/106_505143154.jpg
34,-9.1370759,38.7126838,Copenhagen coffee lab,Lisboa,Portugal,coffee_shop,,,,R. de Santa Justa 14,https://copenhagencoffeelab.com/wp-content/uploads/2021/07/ourbakery.jpg
35,-9.1519371,38.7147619,Copenhagen Coffee Lab & Bakery,Lisboa,Portugal,coffee_shop/boulangerie,,,,R. Nova da Piedade 10,https://copenhagencoffeelab.com/wp-content/uploads/2021/07/ourbakery.jpg
36,-9.1439928,38.7077404,Copenhagen Coffee Lab & Bakery - Cais do Sodré,Lisboa,Portugal,coffee_shop/boulangerie,,,,Rua de S. Paulo 62,https://media-cdn.tripadvisor.com/media/photo-s/16/6a/bf/25/copenhagen-coffee-lab.jpg
37,-9.1561996,38.7189109,Copenhagen Coffee Lab & Bakery - Estrela,Lisboa,Portugal,coffee_shop/boulangerie,,,,Av. Álvares Cabral 13C,https://copenhagencoffeelab.com/wp-content/uploads/2021/07/ourbakery.jpg
38,2.3249371,48.8543713,Arabica Beaupassage,75007,France,coffee_shop,,,,83P Rue du Bac,https://www.milkdecoration.com/wp-content/uploads/2018/11/%C2%A9karel_balas_arabica0020.jpg
39,-1.562347,43.4750472,Mood Café,64200,France,coffee_shop/brunch,,,,49 Av. Maréchal Joffre,https://freight.cargo.site/t/original/i/ca8ccfb2f7c24d1e67507c8feb6d8a6690ef66bac59edc95008a9d206dfed2fb/Mood-Logo-PNG-vert.png
40,2.3481962,48.8470061,TRAM café librairie,75005,France,coffee_shop,,,,47 Rue de la Montagne Ste Geneviève,https://static.lpnt.fr/images/2021/06/03/21803392lpw-21803486-article-jpg_8006034_1250x625.jpg
41,2.3446142,48.88691,The Hardware Société Paris,75018,France,coffee_shop/brunch,,,,10 Rue Lamarck,https://www.leslouves.com/wp-content/uploads/2016/07/1_hardware-societe-brunch.jpg
42,2.35626,48.8642311,The Coffee,75003,France,coffee_shop,,,,40 Rue des Gravilliers,https://thecoffee.s3-sa-east-1.amazonaws.com/images/paris-hautmaris_480x480.jpg
43,2.3822625,48.8735287,Combat,75019,France,bar,,,,63 Rue de Belleville,https://axwwgrkdco.cloudimg.io/v7/lefooding.com/medias/2021/07/10_59_38_662_bar_combat_paris.jpg?width=1440&height=960&optipress=3
44,2.3658365,48.8640676,Bisou.,75003,France,bar,,,,15 Bd du Temple,https://www.materrazza.com/sites/default/files/NB__20190214_002-2.jpg
45,2.3759872,48.854815,Fréquence,75011,France,bar,,,,20 Rue Keller,https://axwwgrkdco.cloudimg.io/v7/lefooding.com/medias/2021/07/18_29_00_112_bar_frequence_paris.JPG?width=1440&height=960&optipress=3
46,2.3734617,48.8627195,Dirty Lemon,75011,France,bar,,,,24 Rue de la Folie Méricourt,https://media.timeout.com/images/105586840/image.jpg
47,2.35072,48.8752266,Divine,75010,France,bar,,,,61 Rue d'Hauteville,https://www.infosbar.com/photo/art/grande/41101038-34626863.jpg?v=1560265286
48,2.339409,48.8765783,RAP Epicerie Fine Italienne,75009,France,epicerie_fine,,,,4 Rue Flechier,https://lh3.googleusercontent.com/p/AF1QipP07EBI36oQyqZtS1cPYIJ_HUXy0WdleuwSAzQi=s1360-w1360-h1020
49,,,Au Bout Du Champ - LEVALLOIS-PERRET,Levallois,France,primeur,,,,4 rue Camille Pelletan,https://images.squarespace-cdn.com/content/v1/5911dea6be6594c7be2466d5/1549967306244-YX3Q9AW8GEZB2OMXOQ5V/au+bout+du+champ?format=1000w
50,,,Au Bout Du Champ - PARIS 9,75009,France,primeur,,,,16  rue des Martyrs,https://images.squarespace-cdn.com/content/v1/5911dea6be6594c7be2466d5/1549967306244-YX3Q9AW8GEZB2OMXOQ5V/au+bout+du+champ?format=1000w
51,,,Au Bout Du Champ - PARIS 11,75011,France,primeur,,,,44  rue Oberkampf,https://images.squarespace-cdn.com/content/v1/5911dea6be6594c7be2466d5/1549967306244-YX3Q9AW8GEZB2OMXOQ5V/au+bout+du+champ?format=1000w
52,,,Au Bout Du Champ - PARIS 14,75014,France,primeur,,,,28  rue Daguerre,https://images.squarespace-cdn.com/content/v1/5911dea6be6594c7be2466d5/1549967306244-YX3Q9AW8GEZB2OMXOQ5V/au+bout+du+champ?format=1000w
53,,,Au Bout Du Champ - PARIS 14,75014,France,primeur,,,,98  rue Raymond Losserand,https://images.squarespace-cdn.com/content/v1/5911dea6be6594c7be2466d5/1549967306244-YX3Q9AW8GEZB2OMXOQ5V/au+bout+du+champ?format=1000w
54,,,Au Bout Du Champ - PARIS 15,75015,France,primeur,,,,86  rue Cambronne,https://images.squarespace-cdn.com/content/v1/5911dea6be6594c7be2466d5/1549967306244-YX3Q9AW8GEZB2OMXOQ5V/au+bout+du+champ?format=1000w
55,,,Au Bout Du Champ - PARIS 17,75017,France,primeur,,,,20  rue des Dames,https://images.squarespace-cdn.com/content/v1/5911dea6be6594c7be2466d5/1549967306244-YX3Q9AW8GEZB2OMXOQ5V/au+bout+du+champ?format=1000w
56,,,Au Bout Du Champ - PARIS 18,75018,France,primeur,,,,38  rue Lepic,https://images.squarespace-cdn.com/content/v1/5911dea6be6594c7be2466d5/1549967306244-YX3Q9AW8GEZB2OMXOQ5V/au+bout+du+champ?format=1000w
57,,,Au Bout Du Champ - PARIS 18,75018,France,primeur,,,,118  rue Caulaincourt,https://images.squarespace-cdn.com/content/v1/5911dea6be6594c7be2466d5/1549967306244-YX3Q9AW8GEZB2OMXOQ5V/au+bout+du+champ?format=1000w
58,,,Au Bout Du Champ - PARIS 19,75019,France,primeur,,,,9  avenue Secrétan,https://images.squarespace-cdn.com/content/v1/5911dea6be6594c7be2466d5/1549967306244-YX3Q9AW8GEZB2OMXOQ5V/au+bout+du+champ?format=1000w
59,,,Au Bout Du Champ - PARIS 20,75020,France,primeur,,,,140  rue de Belleville,https://images.squarespace-cdn.com/content/v1/5911dea6be6594c7be2466d5/1549967306244-YX3Q9AW8GEZB2OMXOQ5V/au+bout+du+champ?format=1000w
60,,,Au Bout Du Champ - PARIS 20,75020,France,primeur,,,,220  rue des Pyrénées,https://images.squarespace-cdn.com/content/v1/5911dea6be6594c7be2466d5/1549967306244-YX3Q9AW8GEZB2OMXOQ5V/au+bout+du+champ?format=1000w
61,2.3237801,48.8502785,La Grande Épicerie de Paris 7,75007,France,epicerie_fine/boucherie/poissonerie/primeur/vins,,,,38 Rue de Sèvres,https://www.sortiraparis.com/images/80/14066/117601-la-table-de-la-grande-epicerie-de-paris.jpg
62,,,La Grande Épicerie de Paris 16,75016,France,epicerie_fine/boucherie/poissonerie/primeur/vins,,,,80 Rue de Passy,https://www.lagrandeepicerie.com/dw/image/v2/BBWG_PRD/on/demandware.static/-/Library-Sites-LGEsharedLibrary/default/dw7806705b/Magasins/grande-epicerie-rive-droite.jpg
63,,,Boucherie Terroir d'Avenir - rue du Nil,75002,France,boucherie,,,,6 rue du Nil,https://frenchfoodcapital.com/wp-content/uploads/2020/11/ta4-1.jpg
64,,,Boulangerie Terroir d'Avenir - rue du Nil,75002,France,boulangerie/patisserie,,,,3 rue du Nil,http://painrisien.com/wp-content/uploads/2015/12/DSC07782-1024x681.jpg
65,,,Crèmerie Terroir d'Avenir - rue du Nil,75002,France,cremerie,,,,8 rue du Nil,https://www.leguidedufromage.com/files/1/2009091817290.jpg
66,,,ÉPICERIE – PRIMEUR Terroir d'Avenir - rue du Nil,75002,France,epiceriefine/primeur,,,,7 rue du Nil,https://uploads.lebonbon.fr/source/2019/paris/decembre/mel/terroir/terroir2.jpg
67,,,Poissonerie Terroir d'Avenir - rue du Nil,75002,France,poissonerie,,,,8 rue du Nil,https://www.francetvinfo.fr/pictures/eIDme3dLb9HGaRpn2nG54cirlyU/fit-in/720x/2016/11/02/phpqfsByQ_1.jpg
68,,,Boucherie Terroir d'Avenir - rue Paul Bert,75011,France,boucherie,,,,2 rue Paul Bert,https://sortir.telerama.fr/sites/tr_master/files/styles/m_plus_640x360/public/assets/images/place/55/97/7/originale.jpg?itok=T1k4aztT
69,,,Boulangerie Terroir d'Avenir - rue Paul Bert,75011,France,boulangerie/patisserie,,,,8 rue Paul Bert,https://www.ydcreation.com/wp-content/uploads/2020/10/PEPS_boulangerie-terroir-8.jpg
70,,,ÉPICERIE – PRIMEUR – CRÈMERIE Terroir d'Avenir - rue Paul Bert,75011,France,epiceriefine/primeur/cremerie,,,,5 rue Paul Bert,https://kissmychef.com/wp-content/uploads/2020/07/12120135_1008067242577683_4122652374377216832_o-e1488101968901.jpg
71,,,Boucherie Terroir d'Avenir - RUE JEAN-PIERRE TIMBAUD,75011,France,boucherie,,,,84 rue Jean-Pierre Timbaud,https://parisbymouth.com/wp-content/uploads/2014/11/DSC0190011.jpg
72,,,ÉPICERIE – PRIMEUR – CRÈMERIE Terroir d'Avenir -  RUE JEAN-PIERRE TIMBAUD,75011,France,epiceriefine/primeur/cremerie,,,,85 rue Jean-Pierre Timbaud,https://lh3.googleusercontent.com/p/AF1QipMqNiWttLBpe-otnbdvKYJb9f3VtlZJgzeNI02q=s1360-w1360-h1020
73,,,ÉPICERIE – PRIMEUR – CRÈMERIE Terroir d'Avenir -  MONTREUIL,93100,France,epiceriefine/primeur/cremerie,,,,9 rue du Capitaine Dreyfus,https://lh3.googleusercontent.com/p/AF1QipOp51yOv2zp9SGpQ7r7T65Yh37f53TPH1_04kpG=s1360-w1360-h1020
74,,,Umami Matcha Café To Go,75017,France,coffee_shop/epicerie_fine/brunch/the,,,,5 Rue Pierre Demours,https://media-cdn.tripadvisor.com/media/photo-s/1a/40/54/e5/umami-matcha-cafe-to.jpg
75,2.3636103,48.8665548,Umami Matcha Café,75003,France,coffee_shop/epicerie_fine/brunch/the,,,,22 Rue Béranger,https://media-cdn.tripadvisor.com/media/photo-s/0f/ee/a9/c9/brunch-umami.jpg
76,,,Maison Plisson - Saint Honoré,75001,France,epicerie_fine/primeur/cremerie/boucherie/vins/boulangerie,,,,35 Place du Marché Saint-Honoré,https://media-cdn.tripadvisor.com/media/photo-s/14/56/92/5d/maison-plisson-35-place.jpg
77,,,Maison Plisson - BEAUMARCHAIS,75003,France,epicerie_fine/primeur/cremerie/boucherie/vins/boulangerie,,,,93 Boulevard Beaumarchais,http://s3.eu-west-1.amazonaws.com/assets2.franklinazzi.transfer/news/featureds/000/000/211/medium/FAA_MAISON_PLISSON_MARCHE_BD_2_%C2%A9_Alexandre_Tabaste.jpg?1539768308
78,-1.6089881,43.4223227,Yaoya,Guéthary,France,epicerie_fine/primeur/boulangerie,,,,251 Av. du Général de Gaulle,https://www.milkdecoration.com/wp-content/uploads/2020/01/dsc_8623.jpg
79,,,Terra Gourma,Levallois Perret,France,epicerie_fine/vins,,,,79 rue Voltaire,https://www.messageinawindow.com/photos/windows/13592/de724480bfaa1ad959839b2a059f7e75.jpg
80,,,Fromagerie Beaufils - Paris 14,75014,France,cremerie,,,,100 rue Raymond Losserand,http://www.fromagerie-beaufils.com/s/cc_images/cache_2468223022.jpg?t=1496850368
81,,,Fromagerie Beaufils - Paris 20,75020,France,cremerie,,,,118 rue de Belleville,http://www.fromagerie-beaufils.com/s/cc_images/cache_2468223022.jpg?t=1496850368
82,,,Fromagerie Beaufils - Paris 14,75009,France,cremerie,,,,20 rue Cadet,https://lh3.googleusercontent.com/p/AF1QipM9RG6QmQL1Qzbd-pR_fyQk3_2hkeeHq25T9OE=s1360-w1360-h1020
83,2.3360435,48.867575,Epices Roellinger Paris,75002,France,épices,,,,51 bis Rue Sainte-Anne,https://ailmacocotte.com/wp-content/uploads/2018/04/31686_Epices-Roellinger-.jpg
84,2.3055702,48.8564772,Fromager Marie-Anne Cantin,75007,France,cremerie,,,,12 Rue du Champ de Mars,https://www.academiedugout.fr/images/13777/1200-auto/carnet_from_cantin_6797.jpg?poix=50&poiy=50
85,2.3055815,48.8576963,Lastre Sans Apostrophe,75007,France,boucherie,,,,188 Rue de Grenelle,http://www.leblogdeboulogne.com/wp-content/uploads/2018/03/IMG_5224.jpg
86,2.3618865,48.8547591,Fromagerie Laurent Dubois Bastille,75004,France,cremerie,,,,97-99 Rue Saint-Antoine,https://lh3.googleusercontent.com/proxy/gNu-CmQenju2GKDb6RbpZDADEH9mq33IuzrdnZUAII4Lgxr7wGhgP_49dxZdgu-P5K5-oAJ2xZNwH2ifgG3VqOUJzK733DOwEBLamdUHpraBRBmVrdW8NQRizl1ah6EHsy6FtBdWO7WU5DrEPpgUJQ7x57Z3E2xZLG-Oyg=s1360-w1360-h1020
87,,,Boucherie Le Bourdonnec - Paris 6,75006,France,boucherie,,,,43 Rue du Cherche-Midi,https://assets.justacote.com/photos_entreprises/le-bourdonnec-au-carre-paris-147160770475.jpg
88,,,Boucherie Le Bourdonnec - Paris 17,75017,France,boucherie,,,,51 Rue de Lévis,https://assets.justacote.com/photos_entreprises/le-bourdonnec-au-carre-paris-147160770475.jpg
89,,,Boucherie Le Bourdonnec - Paris 7,75007,France,boucherie,,,,208 bis Rue de Grenelle,https://assets.justacote.com/photos_entreprises/le-bourdonnec-au-carre-paris-147160770475.jpg
90,3.0581836,50.6442954,Nonādeli,Lille,France,sur_le_pouce/epicerie_fine/primeur,,,,48 Rue Saint-André,
91,5.379091,43.2958049,Epicerie l'Ideal,13001,France,sur_le_pouce/epicerie_fine/primeur/neobistrot,,,,11 Rue d'Aubagne,https://www.le-grand-pastis.com/wp-content/uploads/2020/10/epicerie-lideal-ambiance.jpg
92,2.3516656,48.8909286,La Laiterie de Paris,75018,France,cremerie,,,,74 Rue des Poissonniers,https://mkrs.family/media/pages/places/la-laiterie-de-paris/2bfc43fdcf-1591805184/img_1477.jpg
93,-2.0253603,48.6481821,La Maison du Beurre Bordier,Saint Malo,France,cremerie,,,,9 rue de l’Orme,https://cdt35.media.tourinsoft.eu/upload/DEGBRE035V5137TM-2.jpg
94,2.342127,48.8741,MONBLEU Faubourg Montmartre,75009,France,cremerie/bistro,,,,37 Rue du Faubourg Montmartre,https://www.leshardis.com/wp-content/uploads/2019/06/Monbleu-Restaurant-Paris.jpg
95,2.316611,48.8347856,Chez Victor,75014,France,sur_le_pouce/epicerie_fine/primeur,,,,73 rue Pernety,http://surletagereduhaut.fr/wp-content/uploads/2017/11/Chez-Victor1.jpg
96,,,Maison Vérot - Paris 6,75006,France,boucherie,,,,3 rue Notre-Dame des Champs,https://media-cdn.tripadvisor.com/media/photo-s/13/0f/62/bc/maison-verot.jpg
97,,,Maison Vérot - Paris 3,75003,France,boucherie,,,,38 rue de Bretagne,https://media-cdn.tripadvisor.com/media/photo-s/13/0f/62/bc/maison-verot.jpg
98,,,Maison Vérot - Paris 8 (Galeries Lafayette),75008,France,boucherie,,,,60 avenue des Champs-Élysées,https://media-cdn.tripadvisor.com/media/photo-s/13/0f/62/bc/maison-verot.jpg
99,,,Maison Vérot - Paris 9 (Galeries Lafayette),75009,France,boucherie,,,,40 boulevard Haussmann,https://media-cdn.tripadvisor.com/media/photo-s/13/0f/62/bc/maison-verot.jpg
100,2.359137,48.8674246,Kilikio - Traiteur Grec,75018,France,epicerie_fine,,,,44 Rue des Abbesses,https://images.squarespace-cdn.com/content/v1/5c57ee53fd67934e24b9df1e/1551694075480-VT0F5AD76WK5V8MFZIYA/Kilikio-07.jpg
101,,,Epicerie japonaise Kanae - Paris 5,75005,France,epicerie_fine,,,,29 Pl. Maubert,http://4.bp.blogspot.com/-gA5x8AhcOYo/T33tkYjz2GI/AAAAAAAAAQs/Er9gAx3T5iA/s1600/kanae1.jpg
102,,,Epicerie japonaise Kanae - Paris 15,75015,France,epicerie_fine,,,,118 Rue Lecourbe,http://4.bp.blogspot.com/-gA5x8AhcOYo/T33tkYjz2GI/AAAAAAAAAQs/Er9gAx3T5iA/s1600/kanae1.jpg
103,6.1246913,45.9027784,Pierre Gay - Annecy,Annecy,France,cremerie,,,,47 Rue Carnot,https://www.tome-des-bauges.com/medias/images/prestataires/magasin-pierre-gay-250.jpg
104,,,SoumSoum - Paris 8,75008,France,moyen_orient,,,,59 Rue de Miromesnil,https://www.alloj.com/media/cache/petite_gallery_bloc_paysage/uploads/restaurant-cacher/soumsoum-paris-8eme/slider/gallery/cropped/e2d6215c926fb2f8748891bda2aea2646aa1f3d9.jpg
105,,,SoumSoum - Paris 11,75011,France,moyen_orient,,,,144 Bd Voltaire,https://www.alloj.com/media/cache/petite_gallery_bloc_paysage/uploads/restaurant-cacher/soumsoum-paris-8eme/slider/gallery/cropped/e2d6215c926fb2f8748891bda2aea2646aa1f3d9.jpg
106,4.6288736,43.6760581,L'Épicerie du Cloître,Arles,France,sur_le_pouce/epicerie_fine/primeur,,,,16 Rue du Cloître,https://www.pagesjaunes.fr/media/agc/22/ca/62/00/00/4f/66/69/65/df/602e22ca6200004f666965df/602e22ca6200004f666965e0.jpg
107,12.4786412,41.8790835,Salumeria Volpetti,Rome,Italie,epicerie_fine/boucherie/cremerie,,,,Via Marmorata  47,https://live.staticflickr.com/4464/37064993274_8411c0a0f4_b.jpg
108,2.3860475,48.8687923,Creme,75020,France,cremerie/vins,,,,6 Rue Julien Lacroix,https://www.lefoodmarket.fr/sites/default/files/styles/adressefullwidth/public/images/adresses/diaporama/p1120280.jpeg?itok=a-cUYx1-
109,2.3010287,48.8569275,Arnaud Nicolas restaurant-boutique,75007,France,boucherie/bistro,,,,46 Av. de la Bourdonnais,https://www.thesocialitefamily.com/wp-content/uploads/2017/12/arnaud_nicolas-49-1290x772.jpg
110,2.341971,48.8899137,Charcuterie Arnaud NICOLAS,75018,France,boucherie,,,,125 Rue Caulaincourt,https://www.sortiraparis.com/images/80/92559/601235-charcuterie-arnaud-nicolas.jpg
111,2.3394996,48.8781182,Maison Thielen Charcuterie - Traiteur,75009,France,boucherie,,,,21 Rue des Martyrs,https://www.pagesjaunes.fr/media/ugc/maison_thielen_07505600_131347898
112,2.3779092,48.889775,Epicerie MIAM,75019,France,epicerie_fine/boucherie/cremerie/primeur,,,,168 Rue de Crimée,https://images.midilibre.fr/api/v1/images/view/61a5a3b73e45461e18274cdb/large/image.jpg?v=1
113,2.3398906,48.8932909,Au Lait Cru Fromagerie,75018,France,cremerie,,,,114 Rue Ordener,https://pbs.twimg.com/media/D-4aZCKWsAApheD.jpg
114,,,Humphris - Paris 9,75009,France,epiceriefine/primeur/cremerie/boucherie/vins/boulangerie,,,,2 Rue Milton,https://cdn.radiofrance.fr/s3/cruiser-production/2020/09/7f9fb8c8-c198-482f-b1de-e08fb1e4c7c8/870x489_whatsapp_image_2020-09-04_at_12.08.45.jpg
115,,,Humphris - Paris 18,75018,France,epiceriefine/primeur/cremerie/boucherie/vins/boulangerie,,,,74 Rue des Poissonniers,"https://static.wixstatic.com/media/7b3390_92874d1040844097a1ccd54cb2087672~mv2_d_3456_5184_s_4_2.jpg/v1/fill/w_1000,h_1500,al_c,q_90,usm_0.66_1.00_0.01/7b3390_92874d1040844097a1ccd54cb2087672~mv2_d_3456_5184_s_4_2.jpg"
116,2.3343492,48.8943737,Le marché par Bonne Femme,75018,France,sur_le_pouce,,,,5 Rue du Marché Ordener,https://www.bonnefemmelemarche.com/wp-content/uploads/2020/10/le-marche-bonne-femme.png
117,2.4432364,48.863785,Archi-Boucher,93100,France,boucherie,,,,22 Rue de l'Église,http://www.boma-architectes.com/realisations_img/639/boma-architectes-archiboucher_montreuil-boma-archiboucher-02.jpg
118,2.4021845,48.8680233,Jeanine et Christiane,75020,France,boucherie,,,,8 Rue du Surmelin,https://sortir.telerama.fr/sites/tr_master/files/styles/m_plus_640x360/public/assets/images/ll_jeanine_et_christiane_06.jpg?itok=Qu4ASP7F
119,2.3538392,48.8721462,TAKA & VERMO - Artisans Fromagers,75010,France,cremerie,,,,61bis Rue du Faubourg Saint-Denis,https://sortir.telerama.fr/sites/tr_master/files/styles/m_plus_640x360/public/assets/images/place/78/20/3/originale.jpg?itok=6YPYR_4X
120,2.3537448,48.8485255,Ottanta,75005,France,epicerie_fine/cremerie/vins,,,,6 Rue de l'Arbalète,https://sortir.telerama.fr/sites/tr_master/files/styles/m_plus_640x360/public/assets/images/ladispensadiottanta01.jpg?itok=-Ul7M-YM
121,-1.5510809,43.4859914,Sébastien Zozaya - Meilleur Ouvrier de France - Biarritz,Biarritz,France,boucherie,,,,16 Rue de la Bergerie,https://www.sebastienzozaya.fr/images/content/contact/sebastien-zozaya-meilleur-ouvrier-de-france_contact_02.jpg
122,,,Sébastien Zozaya - Meilleur Ouvrier de France - Anglet,Anglet,France,boucherie,,,,Halles des 5 Cantons,https://www.sebastienzozaya.fr/images/content/contact/sebastien-zozaya-meilleur-ouvrier-de-france_contact_02.jpg
123,,,Sébastien Zozaya - Meilleur Ouvrier de France - Bayonne,Bayonne,France,boucherie,,,,17 Rue Poissonnerie,https://www.sebastienzozaya.fr/images/content/contact/sebastien-zozaya-meilleur-ouvrier-de-france_contact_02.jpg
124,2.3394612,48.8781606,Berrie Martyrs,75009,France,epiceriefine/primeur/cremerie/boucherie/vins/boulangerie,,,,21 Rue des Martyrs,https://i.f1g.fr/media/eidos/704x/2019/08/05/XVM1088b0f6-c68a-11ea-88ae-75fe16daa1bb-300x200.jpg
125,2.3355589,48.8766772,Berrie Saint-Lazare,75009,France,epiceriefine/primeur/cremerie/boucherie/vins/boulangerie,,,,39 Rue Saint-Lazare,https://www.pagesjaunes.fr/media/ugc/berrie_lunch_garde_manger_07505600_102910814
126,2.3202369,48.8899008,Berrie Moines,75017,France,epiceriefine/primeur/cremerie/boucherie/vins/boulangerie,,,,45 Rue des Moines,https://i.f1g.fr/media/eidos/704x/2019/08/05/XVM1088b0f6-c68a-11ea-88ae-75fe16daa1bb-300x200.jpg
127,-3.6970244,40.4323227,Formaje,Madrid,Espagne,cremerie,,,,Plaza de Chamberí  9,https://cdn.thespaces.com/wp-content/uploads/2021/03/FORMAJE_pablo-zamora_HERO.jpg
128,2.3795163,48.8548442,Nanina,75011,France,cremerie,,,,24 Rue Basfroi,https://lh3.googleusercontent.com/p/AF1QipOgh0CuZTYnhk0rW_zRQGBspB3O4E-g0DNJFjOD=s1360-w1360-h1020
129,2.372889,48.8583952,Ebisu Poissonnerie,75011,France,poissonerie/japonais,,,,30 Rue du Chemin Vert,https://www.petitscommerces.fr/wp-content/uploads/2019/05/poissonnerie-restaurant-ebisu-rue-du-chemin-vert-paris-11-poissons-frais-quiberon-patrick-fernandez-et-thi.jpg
130,2.3492807,48.875758,Le Bel Ordinaire - Rive Gauche,75005,France,neobistrot,,,,5 Rue de Bazeilles,https://sortir.telerama.fr/sites/tr_master/files/styles/m_plus_640x360/public/assets/images/place/80/35/7/originale.jpg?itok=nbvvnRvD
131,2.3420781,48.8643574,Restaurant Kei,75001,France,gastronomique,oui,,,5 Rue Coq Héron,https://www.atabula.com/wp-content/uploads/2019/04/couv-1.jpg
132,2.3807315,48.8535789,Septime,75011,France,gastronomique/neobistrot,oui,,,80 Rue de Charonne,https://www.yonder.fr/sites/default/files/styles/mobile_360x484/public/destinations/A-septime-restaurant-paris-salle-decoration-3.jpg?itok=paZnUPK1
133,,,Clamato,75011,France,neobistrot,,,,80 Rue de Charonne,https://www.epicurious.com/images/articlesguides/diningtravel/restaurants/clamato_612.jpg
134,,,Septime La Cave,75011,France,vins/bar,,,,3 Rue Basfroi ,https://www.wendy-lyn.com/wp-content/uploads/2020/04/FullSizeRender-3-1.jpg
135,2.309736,48.860224,Restaurant David Toutain,75007,France,gastronomique,,,,29 Rue Surcouf,https://www.parisgourmand.com/images/stories/18-restos/David-Toutain-restaurant-Paris-7-f.jpg
136,2.7036939,50.7929559,Auberge du Vert Mont,Boeschepe,France,gastronomique/neobistrot/hotel,oui,,,1318 Rue du Mont Noir,http://www.larapporteuse.fr/public/2014_AubergeVertMont/AubergeduVertMont_larapporteuse.jpg
137,,,Bloempot,Lille,France,neobistrot/brasserie,,,,22 rue des Bouchers,https://lilleaddict.fr/wordpress/wp-content/uploads/2020/11/Bloempot-Florent-Ladeyn-Vieux-Lille.jpg
138,,,Bierbuik & Bloemeke,Lille,France,brasserie/sur_le_pouce,,,,19 rue Royale,https://lvdneng.rosselcdn.net/sites/default/files/dpistyles_v2/ena_16_9_extra_big/2019/06/18/node_600490/40358809/public/2019/06/18/B9719978065Z.1_20190618112251_000%2BGDIDS985K.2-0.jpg?itok=b6eJynhz1560849790
139,1.754556,50.471102,La Grenouillère,La Madelaine-sous-Montreuil,France,gastronomique/hotel,oui,,,19 Rue de la Grenouillère,https://i1.wp.com/www.experiencesluxe.com/wp-content/uploads/2020/02/Restaurant-La-Grenouille%CC%80re-a%CC%80-La-Madelaine-sous-Montreuil.jpg?fit=1024%2C610&ssl=1
140,2.3192137,48.8701341,Le Grand Restaurant - Jean-François Piège,75007,France,gastronomique,,,,7 Rue d'Aguesseau,https://media-cdn.tripadvisor.com/media/photo-s/15/87/f7/cd/salle1c-khanh-renaud.jpg
141,-2.2999281,47.023714,La Marine,Noirmoutier-en-l'Île,France,gastronomique,,,,3 Rue Marie Lemonnier,http://www.assiettesgourmandes.fr/wp-content/uploads/2013/04/restaurant-La-Marine-Noirmoutier-2.jpg
142,2.341767,48.8615012,Restaurant yam'Tcha,75001,France,gastronomique,,,,121 Rue St Honoré,https://www.theworlds50best.com/discovery/filestore/jpg/YamTcha-Paris-France-01.jpg
143,2.3169827,48.8557513,Arpège,75007,France,gastronomique,,,,84 Rue de Varenne,https://www.alain-passard.com/wp-content/uploads/2020/09/c536f9137fbaa0ad5afb8fb23abeaf79-750x1000.jpg
144,,,Restaurant La Scène - Stéphanie Le Quellec,75008,France,gastronomique,,,,32 Av. Matignon,https://i1.wp.com/www.experiencesluxe.com/wp-content/uploads/2020/02/La-Sce%CC%80ne.jpg?fit=1050%2C700&ssl=1
145,2.3373794,48.867702,Sushi-B Paris,75002,France,gastronomique/asiatique,,,,5 Rue Rameau,https://res.cloudinary.com/tf-lab/image/upload/restaurant/e442a89d-8ea6-4e4f-8fc9-5ef1488d94fa/b7e2eeaa-681f-4e4c-9e5c-0963b01e710a.jpg
146,2.3374347,48.8664208,Verjus,75001,France,neobistrot,,,,52 Rue de Richelieu,https://media-cdn.tripadvisor.com/media/photo-s/03/2b/5a/e9/verjus.jpg
147,2.2988973,48.873015,Restaurant Copenhague,75008,France,gastronomique,,,,142 Av. des Champs-Élysées,https://www.atabula.com/wp-content/uploads/2018/02/copenhague-paris-restaurant-plat.jpg
148,2.347721,48.876063,NESO,75009,France,gastronomique/neobistrot,,,,6 Rue Papillon,https://media-cdn.tripadvisor.com/media/photo-s/17/49/89/24/menu-degustation.jpg
149,4.88553,44.9176569,Maison Pic,Valence,France,gastronomique/hotel,,,,285 Av. Victor Hugo,https://media-cdn.tripadvisor.com/media/photo-s/0f/07/de/5a/les-creations-d-anne.jpg
150,,,La Dame de Pic,75001,France,gastronomique/neobistrot,,,,20 Rue du Louvre,https://media-cdn.tripadvisor.com/media/photo-s/0c/c8/5b/c4/la-dame-de-pic-paris.jpg
151,6.2108,45.83925,L’Auberge du Père Bise - Jean Sulpice,Talloires-Montmin,France,gastronomique/hotel,,,,303 Rte du Port,https://www.luckymiam.com/wp-content/uploads/Jean-sulpice-auberge-pere-bise-20.jpg
152,6.144522,45.9178437,Le Clos des Sens,Annecy,France,gastronomique/hotel,,,,13 Rue Jean Mermoz,https://www.theworlds50best.com/discovery/filestore/jpg/ClosdesSens-AnnecyleVieux-France-03.jpg
153,2.3097858,48.8673954,Le Clarence,75008,France,gastronomique,,,,31 Av. Franklin Delano Roosevelt,https://media-cdn.tripadvisor.com/media/photo-s/17/45/4e/fb/le-clarence.jpg
154,6.1223951,45.8997293,L'Esquisse,Annecy,France,neobistrot,,,,21 Rue Royale,https://encrypted-tbn0.gstatic.com/images?q=tbn:ANd9GcSdSiwjpOho26dlZO21EdTJXDJcm2ditvIE2w&usqp=CAU
155,6.172057,45.8888907,"Hôtel Restaurant Yoann CONTE, bord du lac",Veyrier-du-Lac,France,gastronomique/hotel,,,,13 Vieille Route des Pensières,
156,6.400328,45.878773,MARC VEYRAT - Maison des Bois,Manigod,France,gastronomique,,,,Rte du Col de la Croix Fry,https://www.yonder.fr/sites/default/files/styles/mobile_360x484/public/destinations/A-maison-des-bois-marc-veyrat-restaurant%20-%20copie.jpg?itok=8qlBOChd
157,12.6104808,55.6828273,Noma,Copenhague,Danemark,gastronomique,,,,Refshalevej 96  1432 København K,https://mobile-img.lpcdn.ca/lpca/924x/r3996/fd897d7f3bb434dbaa1c084ef7750037.jpeg
158,2.4365385,48.8476689,L'Ours,94300,France,gastronomique/neobistrot,,,,10 Rue de l'Église,https://www.sortiraparis.com/images/80/89838/524702-l-ours-vincennes-7.jpg
159,12.5721074,55.7036082,Geranium,Copenhague,Danemark,gastronomique,,,,Per Henrik Lings Allé 4  8. Sal  2100 København,https://media-cdn.tripadvisor.com/media/daodao/photo-s/0f/05/b5/07/caption.jpg
160,18.0585758,59.3338761,Frantzén,Stockholm,Suède,gastronomique,,,,Klara Norra kyrkogata 26,http://foodandsens.com/wp-content/uploads/2018/02/Restaurant-Frantzen-800x534.jpg
161,3.2986417,43.5545667,Äponem L'Auberge du Presbytere,Vailhan,France,gastronomique,,,,1 Rue de l'Eglise,https://media-cdn.tripadvisor.com/media/photo-s/1b/b6/25/2c/20200726-173820-largejpg.jpg
162,2.307617,48.873616,Apicius,75008,France,gastronomique,,,,20 Rue d'Artois,https://www.aleou.fr/images/prestataires/22325/max/apiciusrestaurantparisterrasse.jpg
163,2.8919657,44.6807651,Le Suquet - Sebastien Bras,Laguiole,France,gastronomique,,,,Route de Laguiole,https://www.bras.fr/upload/diaporama/13/bras-le-suquet3-22.jpg
164,2.3132848,48.8697628,La Réserve Paris - Hôtel et Spa,75008,France,gastronomique/hotel,,,,42 Av. Gabriel,https://media.lesechos.com/api/v1/images/view/60665372d286c255da1e4036/1280x720/061735934715-web-tete.jpg
165,2.3224834,48.8362615,Mosuke par Mory Sacko,75014,France,gastronomique/neobistrot,,,,11 Rue Raymond Losserand,https://offloadmedia.feverup.com/parissecret.com/wp-content/uploads/2021/01/18163634/BeFunky-collage-2021-01-18T163531.676-scaled.jpg
166,4.788747,43.74007,Baumanière Les Baux de Provence,Les Baux-de-Provence,France,gastronomique/hotel,,,,D27  Mas de Baumanière,http://foodandsens.com/wp-content/uploads/2018/08/laitue-1280x720.jpg
167,,,MAMICHE - Paris 9,75009,France,boulangerie/patisserie/sur_le_pouce,,,,45 Rue Condorcet,https://i.f1g.fr/media/eidos/orig/2019/09/04/XVMbd028d1c-cb26-11e9-a421-e882f5bf7edf.jpg
168,,,MAMICHE - Paris 10,75010,France,boulangerie/patisserie/sur_le_pouce,,,,32 Rue du Château d'Eau,https://www.sortiraparis.com/images/80/87713/476747-mamiche-2-8.jpg
169,2.3606901,48.8638169,Bontemps,75003,France,patisserie/the/brunch,,,,57 Rue de Bretagne,https://fr.newtable.com/uploads/medias/restaurants/images/large/4592-photo1.jpg
170,-1.6686864,43.380121,ETXE GOXOAN - Ciboure,Ciboure,France,boulangerie/patisserie,,,,51 Av. Jean Jaurès,https://cdn.radiofrance.fr/s3/cruiser-production/2020/12/58867458-6a1c-4fe2-9270-5822a29216c5/870x489_pain.jpg
171,,,ETXE GOXOAN - Halles Saint Jean de Luz,Saint Jean de Luz,France,boulangerie/patisserie,,,,Les Halles  Bd Victor Hugo,https://cdn.radiofrance.fr/s3/cruiser-production/2020/12/58867458-6a1c-4fe2-9270-5822a29216c5/870x489_pain.jpg
172,2.3360432,48.8401436,La Closerie des Lilas,75006,France,gastronomique/brasserie,,,,171 Bd du Montparnasse,https://res.cloudinary.com/tf-lab/image/upload/restaurant/bb6c7a6c-0149-4f2c-b6a7-a728df3d8746/59d6b06f-70c8-4e38-8879-d07f2d20f849.jpg
173,,,Wulff & Konstali Food Shop - Isafjordsgade,Copenhague,France,boulangerie/patisserie/sur_le_pouce/brunch,,,,Isafjordsgade 10  2300 København,https://images.squarespace-cdn.com/content/v1/5a82b01e2aeba51bd261d7e4/1580213321152-4NTIQ6W7ZFMHIH4H4H1Z/N%C3%B8rrebro+wulff+og+konstali+Sankt+hans+torv+david+thulstrup+food+shop+brunch+simpelt+bla%CC%8A+hyggelig+copenhagen+k%C3%B8benhavn++.jpg
174,,,Wulff & Konstali Food Shop - Sankt Hans Torv,Copenhague,France,boulangerie/patisserie/sur_le_pouce/brunch,,,,Sankt Hans Torv 30  2200 København,https://images.squarespace-cdn.com/content/v1/5a82b01e2aeba51bd261d7e4/1580213321152-4NTIQ6W7ZFMHIH4H4H1Z/N%C3%B8rrebro+wulff+og+konstali+Sankt+hans+torv+david+thulstrup+food+shop+brunch+simpelt+bla%CC%8A+hyggelig+copenhagen+k%C3%B8benhavn++.jpg
175,,,Wulff & Konstali Food Shop - Lergravsvej,Copenhague,France,boulangerie/patisserie/sur_le_pouce/brunch,,,,Lergravsvej 57  2300 København,https://images.squarespace-cdn.com/content/v1/5a82b01e2aeba51bd261d7e4/1580213321152-4NTIQ6W7ZFMHIH4H4H1Z/N%C3%B8rrebro+wulff+og+konstali+Sankt+hans+torv+david+thulstrup+food+shop+brunch+simpelt+bla%CC%8A+hyggelig+copenhagen+k%C3%B8benhavn++.jpg
176,,,Yann Couvreur Pâtisserie - Paris 10,75010,France,boulangerie/patisserie/sur_le_pouce,,,,137 Ave Parmentier,http://business.lesechos.fr/images/2020/01/31/334735_yann-couvreur-revisite-le-modele-de-la-patisserie-web-tete-0602657705311_1200x640.jpg
177,,,Yann Couvreur Pâtisserie - Galeries Lafayette Gourmet,75009,France,boulangerie/patisserie/sur_le_pouce,,,,35 Bd Haussmann,http://business.lesechos.fr/images/2020/01/31/334735_yann-couvreur-revisite-le-modele-de-la-patisserie-web-tete-0602657705311_1200x640.jpg
178,,,Yann Couvreur Pâtisserie - Paris 17,75017,France,boulangerie/patisserie/sur_le_pouce,,,,25 Rue Legendre,http://business.lesechos.fr/images/2020/01/31/334735_yann-couvreur-revisite-le-modele-de-la-patisserie-web-tete-0602657705311_1200x640.jpg
179,2.328127,48.865241,Le Meurice,75001,France,gastronomique/brunch/hotel/patisserie,,,,228 Rue de Rivoli,https://www.dorchestercollection.com/wp-content/uploads/paris-le-meurice-restaurant-le-meurice-alain-ducasse-landscape-1920x840.jpg
180,,,Cédric Grolet Opéra,75002,France,boulangerie/patisserie/sur_le_pouce/brunch,,,,35 Av. de l'Opéra,http://foodandsens.com/wp-content/uploads/2019/11/Capture-d%E2%80%99%C3%A9cran-2019-11-22-%C3%A0-12.30.00-780x800.png
181,2.3473079,48.8679191,Boneshaker Doughnuts,75002,France,patisserie,,,,77 Rue d'Aboukir,https://petitsfrenchies.com/wp-content/uploads/2016/08/13612242-1001991283187216-6635438370858704376-n-810x592.jpg
182,,,Fou de Pâtisserie - Martyrs,75009,France,patisserie,,,,36 Rue des Martyrs,http://www.surprisesetgourmandises.fr/wp-content/uploads/2016/08/boutique_FDP24-683x1024.jpg
183,,,Fou de Pâtisserie - Montorgueil,75002,France,patisserie,,,,45 Rue Montorgueil,http://www.surprisesetgourmandises.fr/wp-content/uploads/2016/08/boutique_FDP24-683x1024.jpg
184,2.3628904,48.8712453,Du Pain et des Idées,75010,France,boulangerie/sur_le_pouce,,,,34 Rue Yves Toudic,https://media.timeout.com/images/105318256/image.jpg
185,2.3687121,48.8652898,Boulangerie Utopie,75011,France,boulangerie/sur_le_pouce/patisserie,,,,20 Rue Jean-Pierre Timbaud,http://www.tableadecouvert.fr/wp-content/uploads/2016/04/P1020114.jpg
186,2.3377974,48.8856653,Pâtisserie Gilles Marchal,75018,France,boulangerie/sur_le_pouce/patisserie,,,,9 Rue Ravignan,https://www.doitinparis.com/files/2020/bars-restos-food/patisseries/10/gilles-marchal/gilles-marchal.jpg
187,2.3368532,48.8675969,Tomo,75002,France,patisserie/japonais/the,,,,11 Rue Chabanais,"https://epiceries.imgix.net/shop_images/324043/original/Frame_5.png?ixlib=rails-4.2.0&auto=format%2Ccompress&fit=crop&crop=faces&1623432637&ch=Width,DPR&h=315"
188,2.3468149,48.8652644,Stohrer,75002,France,patisserie,,,,51 Rue Montorgueil,https://media-cdn.tripadvisor.com/media/photo-s/16/21/f6/a8/baba-chantilly-stohrer.jpg
189,,,Des Gâteaux et du Pain - Saint Germain,75007,France,boulangerie/patisserie,,,,89 Rue du Bac,https://www.pagesjaunes.fr/media/ugc/des_gateaux_et_du_pain_07505600_083303480
190,,,Des Gâteaux et du Pain - Montparnasse,75015,France,boulangerie/patisserie,,,,63 Bd Pasteur,https://www.pagesjaunes.fr/media/ugc/des_gateaux_et_du_pain_07505600_083303480
191,2.3608404,48.8702307,HOUSE OF 3 BROTHERS & BROTHERS EAT,75010,France,patisserie/brunch/coffee_shop/sur_le_pouce,,,,23/25 Rue de Lancry,http://marionadecouvert.com/wp-content/uploads/2017/05/HOUSE-OF-3-BROTHERS-PATISSERIE-ALLEMANDE.jpg
192,-1.5642022,43.4330387,Moulin de Bassilour Boulangerie Pâtisserie,Bidart,France,boulangerie,,,,1129 Rue Bassilour,https://media-cdn.tripadvisor.com/media/photo-s/0c/6a/f1/fe/le-moulin-de-bassilour.jpg
193,2.3852926,48.8528028,La Chocolaterie Cyril Lignac - Paul Bert,75011,France,patisserie/chocolatier,,,,25 Rue Chanzy,https://www.gourmand-croquant.com/img/cms/lignac/chocolaterie_paul_bert.jpg
194,,,La Pâtisserie Cyril Lignac - Poncelet,75017,France,boulangerie/patisserie/chocolatier,,,,9 Rue Bayen,https://www.cyrillignac.com/wp-content/uploads/2015/01/Capture-d%E2%80%99%C3%A9cran-2019-02-26-%C3%A0-16.18.46-600x600.png
195,,,La Pâtisserie Cyril Lignac - Sèvres,75006,France,boulangerie/patisserie/chocolatier,,,,133 Rue de Sèvres,https://www.cyrillignac.com/wp-content/uploads/2015/01/Capture-d%E2%80%99%C3%A9cran-2019-02-26-%C3%A0-16.18.46-600x600.png
196,,,La Pâtisserie Cyril Lignac - Chaillot,75116,France,boulangerie/patisserie/chocolatier,,,,2 Rue de Chaillot,https://www.cyrillignac.com/wp-content/uploads/2015/01/Capture-d%E2%80%99%C3%A9cran-2019-02-26-%C3%A0-16.18.46-600x600.png
197,,,La Pâtisserie Cyril Lignac - Pasteur,75015,France,boulangerie/patisserie/chocolatier,,,,55 Bd Pasteur,https://www.cyrillignac.com/wp-content/uploads/2015/01/Capture-d%E2%80%99%C3%A9cran-2019-02-26-%C3%A0-16.18.46-600x600.png
198,2.3354833,48.8914828,La Goutte d'Or Pâtisserie,75018,France,boulangerie/sur_le_pouce/chocolatier,,oui,,183 Rue Marcadet,https://cdn-elle.ladmedia.fr/var/plain_site/storage/images/loisirs/sorties/restaurants/patisserie-paris/la-goutte-d-or/75112184-1-fre-FR/La-Goutte-d-or.jpg
199,2.364797,48.873503,Ten Belles,75010,France,boulangerie/patisserie/coffee_shop,,oui,,10 Rue de la Grange aux Belles,https://media.timeout.com/images/105498244/750/422/image.jpg
200,2.3737094,48.8576591,Ten Belles Bread,75011,France,boulangerie/patisserie/coffee_shop,,,,17-19 Rue Breguet,http://painrisien.com/wp-content/uploads/2016/09/DSC08714.jpg
201,,,Ten Belles 6,75006,France,boulangerie/patisserie/coffee_shop,,,,53 Rue du Cherche-Midi,https://parisbymouth.com/wp-content/uploads/2019/11/ten-belles-paris-75006-exterior.jpg
202,2.3653088,48.861154,Boot Café,75003,France,patisserie/coffee_shop,,,,19 Rue du Pont aux Choux,https://speisekarte.menu/storage/media/company_images/744618/qdYnV8pY7K.jpg
203,,,Season Marais,75003,France,brunch/sur_le_pouce/vege,,,,1 Rue Charles-François Dupuis,https://www.season-paris.com/wp-content/uploads/2020/09/Sans-titre-102.png
204,,,SEASON AMELOT,75003,France,brunch/sur_le_pouce/vege,,,,67 Rue St Sabin,https://lemenu.co/images/1781d35e0e76646e209592eb5b6ef98f.jpg
205,,,Benoît Castel - Paris 20,75020,France,boulangerie/patisserie/sur_le_pouce/coffee_shop/brunch,,,,150 Rue de Ménilmontant,https://boulangerie-bakery.com/wp-content/uploads/2020/02/Capture-d%E2%80%99%C3%A9cran-2020-02-05-%C3%A0-15.35.58-1140x1505.png
206,,,Coffee Shop Benoît Castel,75020,France,boulangerie/patisserie/sur_le_pouce/coffee_shop/brunch,,,,11 Rue Sorbier,https://media.lesechos.com/api/v1/images/view/5e1990043e45464cdb02d2a4/1280x720/0602548114147-web-tete.jpg
207,2.3981429,48.8703943,Benoît Castel - Paris 11,75011,France,boulangerie/patisserie/sur_le_pouce/coffee_shop/brunch,,,,72 Rue Jean-Pierre Timbaud,https://boulangerie-bakery.com/wp-content/uploads/2020/02/Capture-d%E2%80%99%C3%A9cran-2020-02-05-%C3%A0-15.35.58-1140x1505.png
208,,,Une Glace à Paris - Paris 4,75004,France,glace,,,,15 Rue Sainte-Croix de la Bretonnerie,https://s3-media0.fl.yelpcdn.com/bphoto/aAbw_pNcEivSev1VtrhiRA/l.jpg
209,2.33635,48.885403,Une Glace à Paris - Paris 18,75018,France,glace,,,,16 Pl. des Abbesses,https://s3-media0.fl.yelpcdn.com/bphoto/aAbw_pNcEivSev1VtrhiRA/l.jpg
210,2.3399433,48.8834553,Pain Pain,75018,France,boulangerie/patisserie/sur_le_pouce,,,,88 Rue des Martyrs,https://foodetective-production.s3.amazonaws.com/uploads/picture/photo/d1996e99-af53-4e48-9508-56d15d0d3dec/5e738182-e05f-4dd4-ac07-3ae4db7a9243.jpeg
211,,,Ritz Paris Le Comptoir,75001,France,patisserie/brunch,,,,38 Rue Cambon,https://media-cdn.tripadvisor.com/media/photo-s/1d/00/89/34/ritz-paris-le-comptoir.jpg
212,2.3288932,48.8680987,Ritz Paris,75001,France,gastronomique/hotel/brunch/patisserie/the,,,,15 Pl. Vendôme,https://www.ritzparis.com/sites/default/files/styles/1440x748/public/images/card_page/slideshow/jardins_de_lespadon_hiver_0.jpg?itok=YraKcizJ
213,2.2934759,48.8637135,"Shangri-La Hotel, Paris",75116,France,gastronomique/asiatique,,,,10 Av. d'Iéna,https://www.parisgourmand.com/images/stories/19-restos/bauhinia-shangri-la-paris-75016-s1.jpg
214,,,IBRIK CAFE,75009,France,brunch/neobistrot/coffee_shop,,,,43  rue Laffitte,https://ml1zg2et1ufr.i.optimole.com/ca2Iu6M-PsxEYthm/w:1707/h:1280/q:96/rt:fill/g:sm/https://ibrik.fr/wp-content/uploads/2021/04/19-scaled-uai-1707x1280.jpg
215,,,IBRICK KITCHEN,75002,France,brunch/neobistrot/coffee_shop,,,,9  rue de Mulhouse,https://ml1zg2et1ufr.i.optimole.com/ca2Iu6M-PsxEYthm/w:1707/h:1280/q:96/rt:fill/g:sm/https://ibrik.fr/wp-content/uploads/2021/04/19-scaled-uai-1707x1280.jpg
216,,,IBRICK DELI,75010,France,brunch/neobistrot/coffee_shop,,,,7 Rue d’Enghien,https://ml1zg2et1ufr.i.optimole.com/ca2Iu6M-PsxEYthm/w:1707/h:1280/q:96/rt:fill/g:sm/https://ibrik.fr/wp-content/uploads/2021/04/19-scaled-uai-1707x1280.jpg
217,2.2911097,48.8490809,O Coffeeshop,75015,France,coffee_shop/patisserie/brunch,,,,23 Rue de Lourmel,https://img3.parisbouge.com/5P6kp9wzNeWwKKhPz0OTfGPxaT3cpi2LaMTdeKttuKk/rs:fill:1200:800:1/g:ce/wm:1:soea:12:12:0.12/MjM2ZWU1OTUtY2YwMS00MGFiLWFiNzAtZDUyNzczZjI0NmNmLmpwZw.jpg
218,,,Rose Bakery Take Away,75009,France,coffee_shop/patisserie/boulangerie,,,,46 Rue des Martyrs,"https://resize-elle.ladmedia.fr/rcrop/638,,forcex/img/var/plain_site/storage/images/loisirs/sorties/restaurants/salon-de-the/rose-bakery/54244442-1-fre-FR/Rose-Bakery.jpg"
219,,,Rose Bakery Tea Room Le Bon Marché,75007,France,coffee_shop/patisserie,,,,24 Rue de Sèvres,"https://resize-elle.ladmedia.fr/rcrop/638,,forcex/img/var/plain_site/storage/images/loisirs/sorties/restaurants/salon-de-the/rose-bakery/54244442-1-fre-FR/Rose-Bakery.jpg"
220,,,Rose Bakery Café,75009,France,coffee_shop/patisserie/epicerie,,,,13 Rue Manuel,"https://resize-elle.ladmedia.fr/rcrop/638,,forcex/img/var/plain_site/storage/images/loisirs/sorties/restaurants/salon-de-the/rose-bakery/54244442-1-fre-FR/Rose-Bakery.jpg"
221,2.3767622,48.8505611,Blé Sucré,75012,France,boulangerie/patisserie,,,,7 Rue Antoine Vollon,https://media-cdn.tripadvisor.com/media/photo-s/12/fb/a7/74/boulangerie-patisserie.jpg
222,2.374983,48.849097,Boulangerie bo,75012,France,boulangerie/patisserie,,,,85bis Rue de Charenton,http://painrisien.com/wp-content/uploads/2015/06/DSC06531.jpg
223,2.33195,48.8641216,Salon de thé - Pâtisserie des Tuileries,75001,France,patisserie,,,,3 Rue des Pyramides,https://www.sebastiengaudard.com/public_data/diapo/patisserie/1417532698/sebastien-gaudard-patisserie-des-martyrs-vitrine-d.jpg
224,2.34015,48.8779892,Sébastien Gaudard - Pâtisserie des Martyrs,75009,France,patisserie,,,,22 Rue des Martyrs,https://www.sebastiengaudard.com/public_data/diapo/patisserie/1417532698/sebastien-gaudard-patisserie-des-martyrs-vitrine-d.jpg
225,,,Farine&O - Faubourg Saint-Antoine,75011,France,boulangerie/patisserie,,,,153 Rue du Faubourg Saint-Antoine,http://painrisien.com/wp-content/uploads/2016/10/DSC08902.jpg
226,,,Farine&O - Martyrs,75009,France,boulangerie/patisserie,,,,10 Rue des Martyrs,http://painrisien.com/wp-content/uploads/2016/10/DSC08902.jpg
227,2.3547866,48.8573944,Maison Aleph,75004,France,patisserie/moyen_orient,,,,20 Rue de la Verrerie,https://www.maisonaleph.com/wp-content/uploads/2019/06/nids-plateau-bois.jpg
228,2.3683518,48.8758619,La Fontaine de Belleville,75010,France,brunch/coffee_shop/brasserie,,,,31-33 Rue Juliette Dodu,https://www.oubruncher.com/photos1/7657_1.jpg
229,2.3122056,48.8479793,Mori Yoshida,75007,France,patisserie,,,,65 Av. de Breteuil,https://www.sortiraparis.com/images/58/1467/366960-mori-yoshida-grand-vainqueur-du-meilleur-patissier-les-professionnels-2018-2.jpg
230,2.3645631,48.8644515,Jacques Genin - Marais,75003,France,patisserie/the/brunch,,,,133 Rue de Turenne,https://www.lemaraismood.fr/wp-content/uploads/2016/03/Jacques-Genin-1.jpg
231,,,Jacques Genin - Varenne,75007,France,patisserie/the/brunch,,,,27 Rue de Varenne,https://www.lemaraismood.fr/wp-content/uploads/2016/03/Jacques-Genin-1.jpg
232,,,Holybelly 5,75010,France,brunch/neobistrot/coffee_shop,,,,5 Rue Lucien Sampaix,https://axwwgrkdco.cloudimg.io/v7/lefooding.com/medias/2021/07/18_33_03_852_027A4596_2.jpg?width=1440&height=960&optipress=3
233,,,Holybelly 19,75010,France,brunch/neobistrot/coffee_shop,,,,19 Rue Lucien Sampaix,https://axwwgrkdco.cloudimg.io/v7/lefooding.com/medias/2021/07/18_33_03_852_027A4596_2.jpg?width=1440&height=960&optipress=3
234,2.3664356,48.8692042,IMA Vegetarian Food,75010,France,brunch/neobistrot/vege,,,,39 Quai de Valmy,https://images.squarespace-cdn.com/content/v1/580e11cec534a57edb7a7b14/1572450908431-0GP9PVHA4Z3INY7ZM73C/Table%2Bcomposition.jpg?format=1000w
235,2.3541724,48.8633796,Boulangerie Nicolas Flamel,75003,France,boulangerie/patisserie,,,,34 Rue de Montmorency,https://www.doitinparis.com/files/2018/bars-restos/05/boulangerie-nicolas-flamel/nicolas-flamel-pains.jpg
236,2.3355537,48.866097,Aki Boulangerie,75001,France,boulangerie/patisserie/asiatique,,,,16 Rue Sainte-Anne,https://sortir.telerama.fr/sites/tr_master/files/styles/m_plus_640x360/public/assets/images/place/24/58/3/originale.jpg?itok=0yRydvFg
237,2.3201681,48.8353826,Hexagone Café,75014,France,patisserie/coffee_shop/brunch,,,,121 Rue du Château,https://media-cdn.tripadvisor.com/media/photo-s/07/d1/fa/86/hexagone-cafe.jpg
238,2.3413655,48.847445,La Fabrique Givrée - Paris,75005,France,glace,,,,26 Rue Soufflot,https://www.lafabriquegivree.com/img/cms/edition2019/la-fabrique-givree/la-fabrique-ingredients-2.jpg
239,,,La Fabrique Givrée - Saint Remy de Provence,Saint-Rémy-de-Provence,France,glace,,,,48 Rue Carnot 48 Rue Carnot 48 Rue Carnot 48 Rue Carnot 48 Rue Carnot 48 Rue Carnot 48 Rue Carnot 48 Rue Carnot 48 Rue Carnot 48 Rue Carnot 48 Rue Carnot 48 Rue Carnot 48 Rue Carnot 48 Rue Carnot 48 Rue Carnot 48 Rue Carnot 48 Rue Carnot 48 Rue Carnot 48 Rue Carnot 48 Rue Carnot 48 Rue Carnot 48 Rue Carnot 48 Rue Carnot 48 Rue Carnot 48 Rue Carnot 48 Rue Carnot 48 Rue Carnot 48 Rue Carnot 48 Rue Carnot 48 Rue Carnot 48 Rue Carnot 48 Rue Carnot 48 Rue Carnot 48 Rue Carnot 48 Rue Carnot 48 Rue Carnot,https://www.lafabriquegivree.com/img/cms/edition2019/la-fabrique-givree/la-fabrique-ingredients-2.jpg
240,,,La Fabrique Givrée - Bordeaux,Bordeaux,France,glace,,,,25 Rue du Pas Saint Georges,https://www.lafabriquegivree.com/img/cms/edition2019/la-fabrique-givree/la-fabrique-ingredients-2.jpg
241,,,La Fabrique Givrée - Arles,Arles,France,glace,,,,7 bis rue Jean Jaurès,https://www.lafabriquegivree.com/img/cms/edition2019/la-fabrique-givree/la-fabrique-ingredients-2.jpg
242,,,La Fabrique Givrée - Uzès,Uzes,France,glace,,,,16 Place aux Herbes,https://www.lafabriquegivree.com/img/cms/edition2019/la-fabrique-givree/la-fabrique-ingredients-2.jpg
243,,,La Fabrique Givrée - Lyon,Lyon,France,glace,,,,66 Rue Saint-Jean,https://www.lafabriquegivree.com/img/cms/edition2019/la-fabrique-givree/la-fabrique-ingredients-2.jpg
244,2.3321197,48.8446671,Un Grain Décalé,75006,France,coffee_shop,,,,3 Rue Vavin,https://int.dallacorte.com/uploads/news/cover_un_grain_decale.jpg
245,2.3471091,48.8407592,=82paris,75005,France,coffee_shop/patisserie/the/asiatique,,,,11bis Rue Vauquelin,https://k-phenomen.com/wp-content/uploads/2019/07/PLUS-82-PARIS-1.jpg
246,127.0087068,37.534585,Tartine Bakery Seoul,Seoul,Corée du Sud,boulangerie/patisserie/sur_le_pouce/coffee_shop/brunch,,,,22 Hannam-daero 18-gil  Hannam-dong  Yongsan-gu,https://media-cdn.tripadvisor.com/media/photo-s/15/00/9a/26/selection-of-artisan.jpg
247,3.0619889,50.6388334,Gelato&Coffee,Lille,France,glace,,,,27 rue Basse,"https://epiceries.imgix.net/spree/images/235767/large/blanc.jpg?ixlib=rails-4.2.0&auto=format%2Ccompress&fit=crop&crop=faces&auto=format&ch=Width,DPR&w=300?&w=600"
248,-1.5620536,43.4812084,Maison Dezamy,Biarritz,France,glace,,,,11 Rue des Halles,https://media-cdn.tripadvisor.com/media/photo-s/0f/32/e6/da/photo1jpg.jpg
249,,,Bali Bowls,Biarritz,France,vege/sur_le_pouce,,,,4 Rue Gaston Larré,http://www.youmakefashion.fr/wp-content/uploads/2016/09/bali-bowls-biarritz-petit-dej-healthy-acai-bonne-adresse-3.jpg
250,,,Bali Bowls,Biarritz,France,vege/sur_le_pouce,,,,18 Pl. Georges Clemenceau,http://www.youmakefashion.fr/wp-content/uploads/2016/09/bali-bowls-biarritz-petit-dej-healthy-acai-bonne-adresse-3.jpg
251,12.557452,55.668301,Prolog Coffee Bar,Copenhague,Danemark,coffee_shop,,,,Høkerboderne 16  1712 København,https://www.prologcoffee.com/img/index/prolog-idx-bg.jpg
252,12.6129059,55.69013,lille bakery,Copenhague,Danemark,coffee_shop/boulangerie/patisserie/brunch/sur_le_pouce/neobistrot,oui,,,Refshalevej 213A  1432 København,https://www.gloobles.com/media/tips/medium/10497-lille-bakery.jpg
253,12.5829888,55.6821674,Atelier September,Copenhague,Danemark,coffee_shop/patisserie/brunch/sur_le_pouce/neobistrot/vege,,,,Gothersgade 30  1123 København,https://10619-2.s.cdn12.com/rests/original/328_507994448.jpg
254,,,Andersen & Maillard København,Copenhague,Danemark,coffee_shop/patisserie/brunch/sur_le_pouce/boulangerie,,,,Göteborg Pl. 19  2150 København,https://www.luckymiam.com/wp-content/uploads/AndersenMaillard-lisa-klein-michel-10.jpg
255,12.5550975,55.690378,Andersen & Maillard Nørrebro,Copenhague,Danemark,coffee_shop/patisserie/brunch/sur_le_pouce/boulangerie,,,,,https://www.luckymiam.com/wp-content/uploads/AndersenMaillard-lisa-klein-michel-10.jpg
256,12.5562342,55.6924342,Mirabelle,Copenhague,Danemark,coffee_shop/boulangerie/brunch/sur_le_pouce/neobistrot/italien,oui,,,Guldbergsgade 29  2200 København,https://www.mirabelle-bakery.dk/wp-content/uploads/2019/01/mirabelle_bakery-organic-sourdough_bread-final.jpg
257,3.0691499,50.6287705,L'impertinente,Lille,France,brunch/patisserie/the/coffee_shop,,,,9 Bd Papin,https://static.actu.fr/uploads/2017/09/25576-170928193933887-0-960x640.jpg
258,3.060836,50.6383303,Alex Croquet - Fou de pain,Wattignies,France,boulangerie/patisserie,,,,56 Rue Faidherbe,http://painrisien.com/wp-content/uploads/2015/08/DSC07051.jpg
259,3.0652119,50.6392653,Chocolaterie Bailly Quentin,Lille,France,patisserie,,,,65 Rue des Arts,https://lvdneng.rosselcdn.net/sites/default/files/dpistyles/ena_16_9_extra_big/node_895915/49647658/public/thumbnails/image/gros_plan_assortiments_delphine_guiot.jpg?itok=6OrEYaih1605883828
260,-73.9871826,40.7199088,Supermoon Bakehouse,New York,États-Unis,boulangerie/patisserie,,,,120 Rivington St,https://we-love-new-york.com/wp-content/uploads/2020/03/supermoon-bakehouse-lower-east-side.jpg
261,2.3786279,48.8713341,Le Petit Grain,75020,France,boulangerie/patisserie/sur_le_pouce,,,,7 Rue Denoyez,https://www.davidlebovitz.com/wp-content/uploads/2018/09/Le-petit-grain-paris-bakery-boulangerie-patisserie-pastry-shop-5-640x899.jpg
262,,,Le Petit Grain,75004,France,boulangerie/patisserie/sur_le_pouce,,,,1 Rue des Deux Ponts,https://www.davidlebovitz.com/wp-content/uploads/2018/09/Le-petit-grain-paris-bakery-boulangerie-patisserie-pastry-shop-5-640x899.jpg
263,2.4020551,48.8549008,Le Bricheton,75020,France,boulangerie,,,,50 Rue de la Réunion,http://painrisien.com/wp-content/uploads/2016/02/DSC08094.jpg
264,-1.4284629,43.6617001,Le Mango Tree,Soorts-Hossegor,France,vege/sur_le_pouce,,,,Pl. du Commandant Lauwick,https://media-cdn.tripadvisor.com/media/photo-p/12/31/fe/b6/salades-pancakes-au-curry.jpg
265,,,Levain Bakery - 74th Street,New York,États-Unis,boulangerie/patisserie/sur_le_pouce,,,,167 W 74th St,https://we-love-new-york.com/wp-content/uploads/2020/07/chocolate-chip-cookie-new-york-levain-bakery.jpg
266,,,Levain Bakery - Williamsburg,New York,États-Unis,boulangerie/patisserie/sur_le_pouce,,,,164 N 4th St  Brooklyn,https://we-love-new-york.com/wp-content/uploads/2020/07/chocolate-chip-cookie-new-york-levain-bakery.jpg
267,,,Levain Bakery - Upper East Side,New York,États-Unis,boulangerie/patisserie/sur_le_pouce,,,,1484 3rd Ave,https://we-love-new-york.com/wp-content/uploads/2020/07/chocolate-chip-cookie-new-york-levain-bakery.jpg
268,,,Levain Bakery - Amsterdam Avenue,New York,États-Unis,boulangerie/patisserie/sur_le_pouce,,,,351 Amsterdam Ave,https://we-love-new-york.com/wp-content/uploads/2020/07/chocolate-chip-cookie-new-york-levain-bakery.jpg
269,,,Levain Bakery - Harlem,New York,États-Unis,boulangerie/patisserie/sur_le_pouce,,,,2167 Frederick Douglass Blvd,https://we-love-new-york.com/wp-content/uploads/2020/07/chocolate-chip-cookie-new-york-levain-bakery.jpg
270,,,Levain Bakery - NoHo,New York,États-Unis,boulangerie/patisserie/sur_le_pouce,,,,340 Lafayette St,https://we-love-new-york.com/wp-content/uploads/2020/07/chocolate-chip-cookie-new-york-levain-bakery.jpg
271,-1.6626761,43.3890058,GLACES BARGETON,Saint-Jean-de-Luz,France,glace,,oui,,23 Rue Joseph Garat,https://media-cdn.tripadvisor.com/media/photo-s/13/28/2f/63/glacier.jpg
272,2.354713,48.849909,Le Boulanger de la Tour,75005,France,boulangerie,,,,2 Rue du Cardinal Lemoine,"https://www.parisinfo.com/var/otcp/sites/images/node_43/node_51/node_77884/node_79219/le-boulanger-de-la-tour-viennoiseries,-p%C3%A2tisseries,-pains-%7C-630x405-%7C-%C2%A9-pierre-emmanuel-de-leusse-spartium/21473408-1-fre-FR/Le-Boulanger-de-la-Tour-Viennoiseries,-p%C3%A2tisseries,-pains-%7C-630x405-%7C-%C2%A9-Pierre-Emmanuel-de-Leusse-Spartium.jpg"
273,2.3546935,48.8452002,Nuance café,75005,France,coffee_shop/brunch/patisserie,,,,16 Rue Linné,https://media-cdn.tripadvisor.com/media/photo-p/1c/89/30/bf/sweet-and-savory-pancake.jpg
274,2.3236157,48.8595503,Cuppa Cafe,75007,France,coffee_shop/brunch/patisserie,,,,86 Rue de l'Université,https://media-cdn.tripadvisor.com/media/photo-s/13/84/32/6f/photo5jpg.jpg
275,2.3420896,48.8449417,Numéro 220,75005,France,coffee_shop/brunch/patisserie,,,,220 Rue Saint-Jacques,https://media-cdn.tripadvisor.com/media/photo-s/17/a1/4f/d4/numero-220.jpg
276,-2.0385994,48.4562805,La Maison De Tatie Jeanne,Dinan,France,boulangerie,,,,82 Rue du Petit Fort,https://speisekarte.menu/storage/media/company_images/727322/7KTh56YYfL.jpg
277,2.3530343,48.8582346,La Glacerie,75004,France,glace/patisserie,,,,13 Rue du Temple,https://www.laglacerie.fr/wp-content/uploads/2015/05/glacerie-boutique-1000x500.jpg
278,2.4353972,48.8467744,Chocolaterie Julien Dechenaud,94300,France,patisserie/chocolatier,,,,32 Rue Robert Giraudineau,http://painrisien.com/wp-content/uploads/2017/11/DSC00886.jpg
279,2.3855338,48.8470612,Boulangerie Perséphone,75012,France,boulangerie,,,,102 Bd Diderot,https://keldelice-assets.s3.amazonaws.com/attachments/photos/804775/original/capture-d-ecran-2019-01-02-a-17.png?1546448175
280,,,BO&MIE - Turbigo,75002,France,boulangerie/patisserie/sur_le_pouce,,,,18 Rue de Turbigo,https://www.sortiraparis.com/images/80/84282/431859-les-nouveautes-bo-mie-2019-26.jpg
281,,,BO&MIE - Saint Martin,75003,France,boulangerie/patisserie/sur_le_pouce,,,,359 Rue Saint-Martin,https://www.sortiraparis.com/images/80/84282/431859-les-nouveautes-bo-mie-2019-26.jpg
282,,,BO&MIE - Louvre Rivoli,75001,France,boulangerie/patisserie/sur_le_pouce,,,,91 Rue de Rivoli,https://www.sortiraparis.com/images/80/84282/431859-les-nouveautes-bo-mie-2019-26.jpg
283,2.354136,48.8482223,Boulangerie Archibald,75005,France,boulangerie,,,,28 Rue des Fossés Saint-Bernard,https://painrisien.com/wp-content/uploads/2019/03/DSC03142-1024x681.jpg
284,2.2996108,48.8829005,Le Jardin Sucré,75017,France,patisserie,,,,156 Rue de Courcelles,https://www.sortiraparis.com/images/80/93467/630799-les-patisseries-du-jardin-sucre-les-photos-7.jpg
285,2.3231838,48.8540583,Philippe Conticini - Paris 7,75007,France,patisserie,,,,37 Rue de Varenne,https://www.sortiraparis.com/images/80/79056/365109-gateaux-demotions-la-patisserie-de-philippe-conticini-a-paris-16.jpg
286,,,Philippe Conticini - Paris 3,75003,France,patisserie,,,,31 RUE NOTRE DAME DE NAZARETH,https://www.sortiraparis.com/images/80/79056/365109-gateaux-demotions-la-patisserie-de-philippe-conticini-a-paris-16.jpg
287,,,Philippe Conticini - Paris 16,75016,France,patisserie,,,,42 RUE DE L'ANNONCIATION,https://www.sortiraparis.com/images/80/79056/365109-gateaux-demotions-la-patisserie-de-philippe-conticini-a-paris-16.jpg
288,,,Philippe Conticini - Lafayette Gourmet,75009,France,patisserie,,,,35 BOULEVARD HAUSSMANN,https://www.sortiraparis.com/images/80/79056/365109-gateaux-demotions-la-patisserie-de-philippe-conticini-a-paris-16.jpg
289,,,Philippe Conticini - Londres,Londres,UK,patisserie,,,,CAMDEN STABLES MARKET,https://www.sortiraparis.com/images/80/79056/365109-gateaux-demotions-la-patisserie-de-philippe-conticini-a-paris-16.jpg
290,2.3515038,48.8617818,Glace Bachir - Chatelet,75003,France,glace,,,,58 Rue Rambuteau,https://encrypted-tbn0.gstatic.com/images?q=tbn:ANd9GcTyU4oMw66dZhfmvcEj37cPLhYHW6vYEaY9OlKAoniElhS7YDwvBKAkY3k0ENptnEkFiok&usqp=CAU
291,,,Glace Bachir - Montmartre,75018,France,glace,,,,7 Rue Tardieu,https://encrypted-tbn0.gstatic.com/images?q=tbn:ANd9GcTyU4oMw66dZhfmvcEj37cPLhYHW6vYEaY9OlKAoniElhS7YDwvBKAkY3k0ENptnEkFiok&usqp=CAU
292,6.1469761,45.9069682,Boulangerie Patisserie Pan & Gatô,Annecy,France,boulangerie/patisserie,,,,6 Rue du Pré d'Avril,
293,12.5454322,55.675355,Hart Bageri,Copenhague,Danemark,boulangerie/patisserie/coffee_shop/sur_le_pouce,,oui,,Gl. Kongevej 109  1850 Frederiksberg,https://media-cdn.tripadvisor.com/media/photo-s/16/97/a8/22/hart-bageri.jpg
294,2.3607602,48.8630628,Gramme,75003,France,patisserie/coffee_shop/sur_le_pouce/brunch/neobistrot,,,,86 Rue des Archives,https://media.timeout.com/images/105399955/750/422/image.jpg
295,2.3261043,48.8469687,Colorova,75006,France,patisserie/coffee_shop/sur_le_pouce/brunch/neobistrot,,,,47 Rue de l'Abbé Grégoire,https://media-cdn.tripadvisor.com/media/photo-s/19/c7/a1/4a/entrees-avec-confitures.jpg
296,2.3746599,48.8570675,Pâtisserie Emma Duvéré,75011,France,patisserie/coffee_shop/sur_le_pouce/brunch,,,,41 Rue Sedaine,https://www.emmaduvere.fr/web/wp-content/uploads/2020/03/a_boire_et_a_manger_emma_duvere_photo_diane_arques_adagp_weblr05_petit-1024x576.jpg
297,,,Juno the bakery,Copenhague,Danemark,boulangerie/patisserie/sur_le_pouce/coffee_shop/brunch,,,,Århusgade 48  2100 København,https://static.dezeen.com/uploads/2020/11/juno-bakery-interiors-minimalist-copenhagen-frama_dezeen_2364_col_26-852x1278.jpg
298,-1.2024831,44.7235169,Pain Paulin - Cap Ferret,Lège-Cap-Ferret,France,boulangerie/patisserie/sur_le_pouce,oui,,,22 Rte de Bordeaux,https://www.pagesjaunes.fr/media/ugc/pain_paulin_03306900_164520320
299,,,Pain Paulin - Bordeaux,Le Bouscat,France,boulangerie/patisserie/sur_le_pouce,oui,,,11 Av. de la Libération Charles de Gaulle,https://images.ollca.com/fit-in/528x367/ollca/cf87070b-4c3e-42c5-ac36-340a43840f29/shop/f26cea8c-9551-42c6-b1b2-bbac42777e77/1612537411.jpg
300,-0.572848799999974,44.8371437,Boulangerie Louis Lamour,Bordeaux,France,boulangerie/patisserie/sur_le_pouce,oui,,,7 Rue Ravez,http://painrisien.com/wp-content/uploads/2018/01/DSC00678.jpg
301,11.2576678,43.7725588,Gelateria Edoardo,Florence,Italie,glace,,,,Piazza del Duomo  45/R,"https://res.cloudinary.com/abillionveg/image/upload/q_auto,a_exif,w_1080,h_1080,c_fill/v1633273264/fpa0jm6xed99p6p9osdw.jpg"
302,2.3661899,48.8719279,Sain Boulangerie,75010,France,boulangerie/sur_le_pouce,,,,15 Rue Marie et Louise,https://encrypted-tbn0.gstatic.com/images?q=tbn:ANd9GcRjgmg0YgaPgT4xccRhGhIGVdq37gbafUX9WA&usqp=CAU
303,,,The French Bastards - Oberkampf,75011,France,boulangerie/patisserie/sur_le_pouce,,,,61 Rue Oberkampf,https://www.orgyness.com/wp-content/uploads/2019/10/the-french-bastards-paris-3.jpg
304,,,The French Bastards - Saint-Denis,75002,France,boulangerie/patisserie/sur_le_pouce,,,,181 Rue Saint-Denis,https://www.orgyness.com/wp-content/uploads/2019/10/the-french-bastards-paris-3.jpg
305,,,The French Bastards - Saint-Ferdinand,75017,France,boulangerie/patisserie/sur_le_pouce,,,,35 Pl. Saint-Ferdinand,https://www.orgyness.com/wp-content/uploads/2019/10/the-french-bastards-paris-3.jpg
306,2.3724971,48.863387,Fermentation Générale,75011,France,boulangerie,,,,37 Rue de la Folie Méricourt,https://media.timeout.com/images/105393751/image.jpg
307,2.3157391,48.8740939,Boulangerie Louvard,75009,France,boulangerie/patisserie/sur_le_pouce/bistrot,,,,11 Rue de Châteaudun,https://www.latoque.fr/ra/lowres/Publie/LT/p1/Images/Web/2021-06-01/photo%20article%203.jpg
308,,,GRØD,Copenhague,Danemark,brunch/vege,,,,Jægersborggade 50  2200 København,https://media-cdn.tripadvisor.com/media/photo-p/1a/99/02/0d/all-in-oat-porridge-with.jpg
309,,,GRØD,Copenhague,Danemark,brunch/vege,,,,Linnésgade  1362 København,https://media-cdn.tripadvisor.com/media/photo-p/1a/99/02/0d/all-in-oat-porridge-with.jpg
310,,,Grød Restaurant - Vesterbro,Copenhague,Danemark,brunch/vege,,,,Vesterbrogade 105B  1620 København,https://media-cdn.tripadvisor.com/media/photo-p/1a/99/02/0d/all-in-oat-porridge-with.jpg
311,12.5970868,55.668395,Alice Ice Cream & Coffee,Copenhague,Danemark,glace/boulangerie/coffee_shop,,,,Markmandsgade 1  2300 København,https://media-cdn.tripadvisor.com/media/photo-s/14/16/f7/b2/isvaffel-med-hasselnod.jpg
312,12.5768149,55.697752,Leckerbaer,Copenhague,Danemark,patisserie/coffee_shop,,,,Ryesgade 118  2100 København,https://encrypted-tbn0.gstatic.com/images?q=tbn:ANd9GcRSgnp4Hf83-x_-oGWUqoXNZQ0wbeLUVQkh9w&usqp=CAU
313,2.3202719,48.8350338,La Petite Alsacienne,75014,France,boulangerie,,,,45 Rue Raymond Losserand,https://painrisien.com/wp-content/uploads/2019/03/DSC03797-1024x873.jpg
314,2.3991709,48.8510629,Atelier Auger,75020,France,boulangerie/sur_le_pouce,,,,5 Rue Auger,https://axwwgrkdco.cloudimg.io/v7/lefooding.com/medias/2021/07/15_38_35_32_restaurant_boulangerie_atelier_auger_paris.jpeg?width=1440&height=960&optipress=3
315,,,Maison Saint-Honoré - Prado,Marseille,France,boulangerie,oui,,,41 Av. du Prado ,https://laprovence.twic.pics/media/2017/09/29/saint-honore.jpg?twic=v1/focus=0x0
316,,,Maison Saint-Honoré - Endoume,Marseille,France,boulangerie,oui,,,131 Rue d'Endoume,https://laprovence.twic.pics/media/2017/09/29/saint-honore.jpg?twic=v1/focus=0x0
317,,,Maison Saint-Honoré - Cabot,Marseille,France,boulangerie,oui,,,28 Bd du Cabot,https://laprovence.twic.pics/media/2017/09/29/saint-honore.jpg?twic=v1/focus=0x0
318,,,Bread Ahead Bakery | Beak street,Londres,UK,boulangerie/patisserie/sur_le_pouce,,,,21 Beak St  Carnaby  London W1F 9RR,https://media-cdn.tripadvisor.com/media/photo-s/16/58/3e/4a/photo1jpg.jpg
319,,,Bread Ahead Bakery | Borough,Londres,UK,boulangerie/patisserie/sur_le_pouce,,,,Borough Market  Cathedral St  London SE1 9DE,https://media-cdn.tripadvisor.com/media/photo-s/16/58/3e/4a/photo1jpg.jpg
320,,,Bread Ahead Bakery | Pavilion road,Londres,UK,boulangerie/patisserie/sur_le_pouce,,,,249 Pavilion Rd  London SW1X 0BP,https://media-cdn.tripadvisor.com/media/photo-s/16/58/3e/4a/photo1jpg.jpg
321,-0.096344199999976,51.5366932,Pophams Bakery,Londres,UK,boulangerie/patisserie/sur_le_pouce/coffee_shop/brunch,,,,197 Richmond Rd  London E8 3NJ,https://images.squarespace-cdn.com/content/v1/5908b840f7e0ab2f59b628a1/1562842902251-GZYJAVQWR4BWH00D8OCG/190621_Pophams_460.jpg?format=1500w
322,2.3289823,48.8315185,Le temps et le pain,75014,France,boulangerie/patisserie,,,,7 Rue Mouton-Duvernet,http://painrisien.com/wp-content/uploads/2018/04/DSC01560.jpg
323,2.3480217,48.8678568,Plaq,75002,France,patisserie,,,,4 Rue du Nil,https://img.lemde.fr/2021/04/02/0/0/2422/1804/664/0/75/0/6c4bf71_947490835-plaq.jpg
324,2.3441784,48.8672734,Tartelettes,75002,France,patisserie/sur_le_pouce/brunch,,,,102 Rue Montmartre,https://media-cdn.tripadvisor.com/media/photo-s/1a/47/74/4f/tarte-salee-sous-bois.jpg
325,2.3379019,48.8912569,Atelier P1,75018,France,boulangerie/sur_le_pouce,,,,157 Rue Marcadet,https://atelierp1.fr/wp-content/uploads/elementor/thumbs/dsc02449-okmv7oofg3oykl3d05g6habw6pb2qsdh2kgzrx7uky.jpg
326,2.3413031,48.880248,Babka Zana,75009,France,boulangerie/patisserie,,,,65 Rue Condorcet,"https://media.vogue.fr/photos/5e7b28eb8c3f5f00087ad9ad/2:3/w_808,h_1212,c_limit/babka%202%20@geraldinemartens.jpg"
327,2.3344881,48.8851971,Riv'K,75018,France,neobistrot/moyen_orient/asiatique,,,,35 Rue Véron,https://cdn.radiofrance.fr/s3/cruiser-production/2019/03/6102d73a-d568-471d-b8a6-a0f95bf6382c/870x489_fich_diff_rivk.jpg
328,2.4423521,48.8639329,Fournil Éphémère L'Atelier,93100,France,boulangerie,,,,11 Rue de l'Église,http://painrisien.com/wp-content/uploads/2016/01/DSC07841.jpg
329,2.3853019,48.8672831,Elements pain bio,75020,France,boulangerie,,,,3 Rue Victor Letalle,https://elementspainbio.com/images/home_mobile/campagne.jpg
330,-1.4269774,43.591168,Boulangerie bio la vapeur,Labenne,France,boulangerie,,,,46 Av. Charles de Gaulle,https://www.tourismelandes.com/wp-content/uploads/wpetourisme/La-Vapeur-Photo-5.jpg
331,12.5794898,55.6989631,Østerberg Ice Cream,Copenhague,Danemark,glace,,,,Tullinsgade 25  1618 København,https://files.guidedanmark.org/files/382/382_15305.jpg?width=1024
332,,,Østerberg Ice Cream,Copenhague,Danemark,glace,,,,Rosenvængets Allé 7C  2100 København,https://files.guidedanmark.org/files/382/382_15305.jpg?width=1024
333,2.1631,41.4005,Origo,Barcelona,Espagne,boulangerie,,,,Carrer de Milà i Fontanals  9,https://media-cdn.tripadvisor.com/media/photo-s/13/df/ac/76/origo-bakery.jpg
334,,,Monsieur Txokola - Bayonne,Bayonne,France,patisserie,,,,11 Rue Jacques Laffitte,https://media-cdn.tripadvisor.com/media/photo-s/0f/9d/54/04/facade.jpg
335,,,Monsieur Txokola - Biarritz,Biarritz,France,patisserie,,,,17 Rue des Halles,https://media-cdn.tripadvisor.com/media/photo-s/0f/9d/54/04/facade.jpg
336,-9.1532046,38.7141848,Nannarella,Rome,Italie,brasserie/italien,,,,Piazza di S. Calisto  5  00153 Roma RM,https://media-cdn.tripadvisor.com/media/photo-s/1b/59/1e/a2/tonnarello-alla-carbonara.jpg
337,-9.2032276,38.6975105,Pastéis de Belém.,Lisbonne,Portugal,patisserie,,,,R. de Belém 84 92  1300-085 Lisboa,https://media-cdn.tripadvisor.com/media/photo-s/0b/fa/0c/66/apenas-5-para-un-kit.jpg
338,-9.1440596,38.7107556,Manteigaria (Portuguese custard pies factory),Lisbonne,Portugal,patisserie,,,,Rua do Loreto 2  1200-108 Lisboa,https://live.staticflickr.com/65535/48041977126_0b2535dd4e_b.jpg
339,2.3396317,48.8851843,Shinya Pain Montmartre,75018,France,boulangerie,oui,,,41 Rue des Trois Frères,https://www.latoque.fr/ra/lowres/Publie/LT/p1/Images/Actualit%C3%A9/M%C3%A9tier/2020-11-01/P2.jpg
340,2.3172145,48.8828041,Boulangerie Bacillus,75017,France,boulangerie/patisserie/sur_le_pouce/brunch,oui,,,100 Rue des Dames,https://media-cdn.tripadvisor.com/media/photo-p/1b/7e/dd/73/photo0jpg.jpg
341,,,Boulangerie Bacillus - Le Marché,75017,France,boulangerie/patisserie/sur_le_pouce,oui,,,Marché Couvert des Batignolles  96 Bis Rue Lemercier ,https://media-cdn.tripadvisor.com/media/photo-p/1b/7e/dd/73/photo0jpg.jpg
342,2.366502,48.8652663,Dreamin man,75011,France,patisserie/coffee_shop/sur_le_pouce,,,,140 Rue Amelot,https://www.pix.city/cache/bg_header_slider/uploads/cards/2019/04/2ee8c27da815dec5b33bfad7d1699941.jpeg
343,,,LIBERTÉ Paris 10e,75010,France,boulangerie/patisserie/sur_le_pouce/brunch,,,,39 rue des Vinaigriers,https://media.lesechos.com/api/v1/images/view/5fc97f583e45463b7860ab19/1280x720/06141554644-web-tete.jpg
344,,,LIBERTÉ Paris 17e,75017,France,boulangerie/patisserie/sur_le_pouce/brunch,,,,10 rue Poncelet,https://media.lesechos.com/api/v1/images/view/5fc97f583e45463b7860ab19/1280x720/06141554644-web-tete.jpg
345,,,LIBERTÉ Paris 6e,75006,France,boulangerie/patisserie/sur_le_pouce/brunch,,,,40 rue St André des Arts,https://media.lesechos.com/api/v1/images/view/5fc97f583e45463b7860ab19/1280x720/06141554644-web-tete.jpg
346,,,LIBERTÉ Paris 7e,75007,France,boulangerie/patisserie/sur_le_pouce/brunch,,,,58 rue Saint Dominique,https://media.lesechos.com/api/v1/images/view/5fc97f583e45463b7860ab19/1280x720/06141554644-web-tete.jpg
347,,,LIBERTÉ Paris 9e,75009,France,boulangerie/patisserie/sur_le_pouce/brunch,,,,1 rue Hippolyte Lebas,https://media.lesechos.com/api/v1/images/view/5fc97f583e45463b7860ab19/1280x720/06141554644-web-tete.jpg
348,-9.143529,38.7091491,Landeau Chocolate,Lisbonne,Portugal,patisserie,,,,Rua das Flores 70  1299-195 Lisboa,https://media-cdn.tripadvisor.com/media/photo-s/0d/6d/dd/da/landeau-chocolate.jpg
349,2.3113194,48.9038525,La Rue Palloy Boulangerie.,92110,France,boulangerie/patisserie,,,,50 Rue Palloy,http://painrisien.com/wp-content/uploads/2017/02/DSC09491.jpg
350,2.3965835,48.8692197,Pane Vivo,75020,France,boulangerie,,,,49 Rue de la Chine,https://cdn.shopify.com/s/files/1/0262/5509/7902/products/PainPanone2kgGrandformatsanslivre_2048x.png?v=1617351086
351,4.8274519,45.7751029,Boulangerie Biologique Paume de Pain,Lyon,France,boulangerie,,,,13 Rue Perrod,https://eldoradoz.fr/IMG/jpg/img_1092.jpg
352,1.9807129,48.8540256,Epis et Pains,Chavenay,France,boulangerie,,,,5 Rue de Gally,https://painrisien.com/wp-content/uploads/2019/08/DSC04293-1024x681.jpg
353,-2.0524823,48.635103,Vent de Vanille,Dinard,France,patisserie/glace,,,,3 Bis Bd Wilson,https://www.maisons-de-bricourt.com/media/rich-editor/elem8a_gal-60398bd2d4c7d.jpg
354,5.3989061,43.3046987,Boulangerie Boni,Marseille,France,boulangerie,,,,58 Av. des Chartreux,https://images.squarespace-cdn.com/content/v1/5ac338c57106998b66912a94/1607591109574-8LV4Z49K47W86K31J1SW/IMG_8458.jpeg
355,2.3113731,48.8849882,Léonie,75017,France,boulangerie/patisserie/sur_le_pouce,,,,96 Rue de Lévis,http://painrisien.com/wp-content/uploads/2013/07/IMG_0499.jpg
356,-0.0844365,51.5513088,Jolene Bakery & Restaurant,Londres,UK,boulangerie/neobistrot,,,,21 Newington Grn  Mayville Estate  London N16 9PU,https://static.independent.co.uk/s3fs-public/thumbnails/image/2019/05/08/16/jolene-restaurant-interior-patricia-niven.jpg?width=1200&auto=webp&quality=75
357,5.3602831,43.2886723,Dame Farine,Marseille,France,boulangerie,,,,77 Av. de la Corse,https://www.tempsgourmand.fr/blog/wp-content/uploads/2018/11/60-1024x675.jpg
358,-0.5833717,44.8403301,ATELIER LANDRY,Bordeaux,France,boulangerie,,,,43 Rue Georges Bonnac,http://painrisien.com/wp-content/uploads/2018/06/DSC01653.jpg
359,5.3849754,43.2922819,House of Pain - Boulangerie bio,Marseille,France,boulangerie,,,,14 Rue Fontange,https://marseille.love-spots.com/wp-content/uploads/2020/06/house-of-pain-boulangerie-pain-levain-naturel-marseille-love-spots6.jpg
360,2.1609306,41.397915,Xurreria Trebol,Barcelona,Espagne,patisserie,,,,Carrer de Corsega  341  08037 Barcelona,https://media-cdn.tripadvisor.com/media/photo-s/0e/81/31/ee/photo0jpg.jpg
361,2.1727807,41.3829084,La Pallaresa Xocolateria Xurreria,Barcelona,Espagne,patisserie,,,,Carrer de Petritxol  11  08002 Barcelona,https://dxbowaj7shf9g.cloudfront.net/uploads/user_place/image/2623/large_granja-la-pallaresa-1.jpg
362,-9.1362061,38.7104885,Nicolau Lisboa,Lisbonne,Portugal,patisserie/brunch/vege/coffee_shop,,,,R. de São Nicolau 17  1100-547 Lisboa,https://media-cdn.tripadvisor.com/media/photo-s/1c/3c/fd/db/pancakes.jpg
363,2.3883811,48.8746918,La Petite Boulangerie de Belleville,75020,France,boulangerie,,,,120 Rue de Belleville,https://media.vogue.fr/photos/5c2f46b470f7c244f07c5f1b/master/w_320%2Cc_limit/boulangerie_petit_grain_edward_delling_williams_belleville_5_8922.png
364,2.3213,48.8371939,Boulangerie Un pain à part,75014,France,boulangerie,,,,4 Place Constantin Brancusi,"https://static.wixstatic.com/media/2c5a27_da005d07c0f6405ba5775f7d2af0d707~mv2.jpg/v1/fill/w_560,h_566,al_c,q_80,usm_0.66_1.00_0.01/viennoiseries.webp"
365,2.3475155,48.8759316,UNION BOULANGERIE,75009,France,boulangerie/patisserie/sur_le_pouce,,,,2 Rue Bleue,https://uploads.lebonbon.fr/source/2021/paris/juin/Union_Boulagerie_Paris_inteIrieur.jpg
366,4.8213409,43.7944237,Terre de Blé,Saint-Rémy-de-Provence,France,boulangerie/neobistrot,,,,zac de la Gare  24 Av. Albin Gilles,https://www.latoque.fr/ra/lowres/Publie/LT/p1/Images/Rencontre/Personnalit%C3%A9%20du%20mois/2021-10-01/Photo%205%20Henri%20de%20Pazzis.jpg
367,4.8264329,43.7934308,Painprenelle,Saint-Rémy-de-Provence,France,boulangerie,,,,4 Av. de la 1ère Dfl,https://ccf-prod-v2.s3.amazonaws.com/17714/conversions/77CKSOVP6TIBzBAJRgvrnYMI7z4QGFZzXqleqzh7-large.jpg
368,5.4609236,43.5224221,La Fabrique à pain,Aix-en-Provence,France,boulangerie,,,,4 Rue Pierre de Coubertin,
369,2.3813834,48.8507906,Mokonuts Cafe and Bakery,75011,France,neobistrot/coffee_shop/patisserie,,,,5 Rue Saint-Bernard,https://www.davidlebovitz.com/wp-content/uploads/2017/04/Mokonuts-Paris-restaurant-11.jpg
370,2.3716508,48.8681354,Robert,75011,France,neobistrot,,,,32 Rue de la Fontaine au Roi,http://www.yonder.fr/sites/default/files/destinations/A-robert-restaurant-paris-salle-02_%C2%A9_YONDER.fr_.jpg
371,2.3500202,48.8806074,Les Arlots,75010,France,neobistrot/brasserie,,,,136 Rue du Faubourg Poissonnière,https://media.timeout.com/images/103257444/image.jpg
372,2.368177,48.8715463,Levantine,75010,France,sur_le_pouce/moyen_orient,,,,36 Rue Bichat,https://www.levantine.paris/wp-content/uploads/2014/07/41074_0008_f_1539799097-1030x687.jpg
373,2.3419789,48.8610196,Clover Grill,75001,France,brasserie,,,,6 Rue Bailleul,https://www.yonder.fr/sites/default/files/destinations/B-clover-grill-pizza-soufflee-01.jpg
374,-1.608927,43.424956,Providence Guéthary,Guéthary,France,sur_le_pouce/coffee_shop/brunch,,,,548 Av. du Général de Gaulle,https://media-cdn.tripadvisor.com/media/photo-s/0f/b6/35/a4/providence-cafe-bar-sur.jpg
375,2.3434734,48.8697061,Jòia,75002,France,neobistrot,,,,39 Rue des Jeuneurs,https://img.over-blog-kiwi.com/2/55/12/01/20180901/ob_c6929f_20180901-122029.jpg
376,,,Creperie Breizh Café Paris Marais,75003,France,crepes,,,,109 rue vielle du temple,https://images.squarespace-cdn.com/content/v1/52888f09e4b01a99899b4edb/1493283607832-RD1W41L3KGNRQU6P13LD/Breizh+Cafe+%7C+www.theflyingflour.com?format=1000w
377,,,Creperie Breizh Café Saint Malo,Saint-Malo,France,crepes,,,,6 rue de l'Orme,https://images.squarespace-cdn.com/content/v1/52888f09e4b01a99899b4edb/1493283607832-RD1W41L3KGNRQU6P13LD/Breizh+Cafe+%7C+www.theflyingflour.com?format=1000w
378,,,Creperie Breizh Café Cancale,Cancale,France,crepes,,,,7 quai Thomas,https://images.squarespace-cdn.com/content/v1/52888f09e4b01a99899b4edb/1493283607832-RD1W41L3KGNRQU6P13LD/Breizh+Cafe+%7C+www.theflyingflour.com?format=1000w
379,,,Creperie Breizh Café Abbesses,75018,France,crepes,,,,93 Rue des Martyrs,https://images.squarespace-cdn.com/content/v1/52888f09e4b01a99899b4edb/1493283607832-RD1W41L3KGNRQU6P13LD/Breizh+Cafe+%7C+www.theflyingflour.com?format=1000w
380,,,BREIZH Café Batignolles,75017,France,crepes,,,,31 Rue des Batignolles,https://images.squarespace-cdn.com/content/v1/52888f09e4b01a99899b4edb/1493283607832-RD1W41L3KGNRQU6P13LD/Breizh+Cafe+%7C+www.theflyingflour.com?format=1000w
381,,,BREIZH Café Montorgueil,75002,France,crepes,,,,14 Rue des Petits Carreaux,https://images.squarespace-cdn.com/content/v1/52888f09e4b01a99899b4edb/1493283607832-RD1W41L3KGNRQU6P13LD/Breizh+Cafe+%7C+www.theflyingflour.com?format=1000w
382,,,Breizh Café Paul Bert,75011,France,crepes,,,,23 Rue Paul Bert,https://images.squarespace-cdn.com/content/v1/52888f09e4b01a99899b4edb/1493283607832-RD1W41L3KGNRQU6P13LD/Breizh+Cafe+%7C+www.theflyingflour.com?format=1000w
383,,,BREIZH Café Odéon,75006,France,crepes,,,,1 Rue de l'Odéon,https://images.squarespace-cdn.com/content/v1/52888f09e4b01a99899b4edb/1493283607832-RD1W41L3KGNRQU6P13LD/Breizh+Cafe+%7C+www.theflyingflour.com?format=1000w
384,,,Breizh Café Canal Saint-Martin,75010,France,crepes,,,,112 Quai de Jemmapes,https://images.squarespace-cdn.com/content/v1/52888f09e4b01a99899b4edb/1493283607832-RD1W41L3KGNRQU6P13LD/Breizh+Cafe+%7C+www.theflyingflour.com?format=1000w
385,12.5559149,55.6922215,Bæst,Copenhague,Danemark,italien,,,,Guldbergsgade 29  2200 København N,https://media-cdn.tripadvisor.com/media/photo-s/14/67/e2/e8/pizza-n0-2.jpg
386,2.3346904,48.8818459,Pink Mamma,75009,France,italien,,,,20bis Rue de Douai,https://www.bigmammagroup.com/admin/wp-content/uploads/2017/03/pizzeria_popolare_01-1.jpg
387,2.3206392,48.8835178,Mamma Primi,75017,France,italien,,,,18 Rue Boursault,https://www.bigmammagroup.com/admin/wp-content/uploads/2017/03/pizzeria_popolare_01-1.jpg
388,2.3701153,48.8644444,Ober Mamma,75011,France,italien,,,,107 Bd Richard-Lenoir,https://www.bigmammagroup.com/admin/wp-content/uploads/2017/03/pizzeria_popolare_01-1.jpg
389,,,East Mamma,75011,France,italien,,,,133 Rue du Faubourg Saint-Antoine,https://www.bigmammagroup.com/admin/wp-content/uploads/2017/03/pizzeria_popolare_01-1.jpg
390,2.3094137,48.860528,Tomy & Co,75007,France,neobistrot,,,,22 Rue Surcouf,https://media-cdn.tripadvisor.com/media/photo-s/0d/22/7f/c6/gnocchis-fondant-truffes.jpg
391,,,La Felicità,75013,France,italien,,,,5 Parv. Alan Turing,https://www.bigmammagroup.com/admin/wp-content/uploads/2017/03/pizzeria_popolare_01-1.jpg
392,2.343293,48.868127,Pizzeria Popolare,75002,France,italien,,,,111 Rue Réaumur,https://www.bigmammagroup.com/admin/wp-content/uploads/2017/03/pizzeria_popolare_01-1.jpg
393,2.3794311,48.8702691,Tripletta Belleville,75020,France,italien,,,,88 Bd de Belleville,https://fr.newtable.com/uploads/medias/restaurants/images/large/4488-photo1.jpg
394,,,Tripletta Gaité,75014,France,italien,,,,1 Imp. de la Gaité,https://fr.newtable.com/uploads/medias/restaurants/images/large/4488-photo1.jpg
395,2.341917,48.8831097,Bijou,75018,France,italien,,,,10 Rue Dancourt,https://www.sortiraparis.com/images/80/91742/579478-pizzeria-bijou-10.jpg
396,2.3820566,48.8502275,Jouvence,75012,France,neobistrot,,,,172 Bis Rue du Faubourg Saint-Antoine,https://media-cdn.tripadvisor.com/media/photo-s/0c/c1/68/3d/la-devanture-du-restaurant.jpg
397,2.316977,48.89058,Coretta,75017,France,neobistrot,,,,151Bis Rue Cardinet,https://res.cloudinary.com/tf-lab/image/upload/restaurant/f81d77e7-ce40-47ad-80f4-a53f5ceb2c1e/dc06a755-fe2c-4af8-bb67-971424e456aa.jpg
399,2.341172,48.855031,Ze Kitchen Galerie,75006,France,neobistrot,,,,4 Rue des Grands Augustins,https://media-cdn.tripadvisor.com/media/photo-s/1a/9a/88/68/credit-photo-louis-laurent.jpg
400,2.3747656,48.8493191,Passerini,75012,France,neobistrot/italien,,,,65 Rue Traversière,https://media-cdn.tripadvisor.com/media/photo-s/0b/9a/77/57/restaurant-passerini.jpg
401,2.3445439,48.8750429,Abri Soba,75009,France,asiatique,,,,10 Rue Saulnier,https://media-cdn.tripadvisor.com/media/photo-s/0f/99/fc/a0/photo2jpg.jpg
402,2.3492905,48.8778727,Abri,75010,France,asiatique/neobistrot,,,,92 Rue du Faubourg Poissonnière,https://www.lexpress.fr/medias/2312/1183892.jpg
403,2.3849919,48.8654385,Popine - Ménilmontant,75020,France,italien,,,,108 Bd de Ménilmontant,https://media-cdn.tripadvisor.com/media/photo-p/15/83/99/4e/pizza.jpg
404,,,Popine - Saint Sauveur,75002,France,italien,,,,32 Rue Saint-Sauveur,https://media-cdn.tripadvisor.com/media/photo-p/15/83/99/4e/pizza.jpg
405,2.3862279,48.8686439,Dilia,75020,France,italien/neobistrot,,,,1 Rue d'Eupatoria,https://www.dilia.fr/wp-content/uploads/2015/08/10454901_678816165507012_2282628138985238412_o-600x401.jpg
406,2.389864,48.852931,Fulgurances l'Adresse,75011,France,neobistrot,,,,10 Rue Alexandre Dumas,https://cdn.radiofrance.fr/s3/cruiser-production/2019/01/f3c22f28-bbef-4a46-bd5d-b85a94009b77/838_rpuxan_bc_fulgurances_110a9909_1.jpg
407,,,Fulgurances - En Face,75011,France,neobistrot/vins/bar,,,,5 rue Alexandre Dumas,https://fulgurances.com/wp-content/uploads/2018/11/IMG_8503-Modifier-e1542121718269-420x600.jpg
408,,,Fulgurances - l'Entrepôt,75014,France,neobistrot,,,,7 Rue Francis de Pressensé,https://www.eau-a-la-bouche.fr/wp-content/uploads/2021/07/fulgurances-entrepot-paris-terrasse-scaled.jpg
409,2.3813876,48.8609891,Le Servan,75011,France,neobistrot,,,,32 Rue Saint-Maur,https://fulgurances.com/wp-content/uploads/2018/11/LA_SALLE_5.jpg
410,2.330282,48.855178,CLOVER GREEN,75007,France,brasserie/neobistrot,,,,5 Rue Perronet,https://images.squarespace-cdn.com/content/v1/6093fe458c37b128c4af4189/1626869877915-PPUKN01H8MGOQ45JDAAJ/Cerises+au+jus%2C+lait+de+riz+glace%CC%81%2C+riz+noir+souffle%CC%81+%C2%A9Nicolas-Lobbestael.jpg?format=750w
411,,,À l’Épi d’Or,75001,France,brasserie,,,,25 rue Jean-Jacques Rousseau,https://images.squarespace-cdn.com/content/v1/6093fe458c37b128c4af4189/1625416271977-PJLE4UW4NEVN3RUHGY4P/Steak+Tartare+frites%40BenedettaChiala.jpg?format=300w
412,,,La Poule au Pot,75001,France,brasserie,,,,9 rue Vauvilliers,https://images.squarespace-cdn.com/content/v1/6093fe458c37b128c4af4189/1625415216370-BS8PFXQQFNCZ14JH6KVY/Escargots+en+coquille%2C+beurre+d%27escargot+5+%C2%A9Nicolas+Lobbestael.jpg?format=750w
413,,,Clover Gordes,Gordes,France,neobistrot,,,,La Bastide de Gordes  Rue de la Combe,https://images.squarespace-cdn.com/content/v1/6093fe458c37b128c4af4189/1625418080735-VVDEBCTCS9MD75QSBVQV/CALMARS+CARBONARA+1+%40NicolasLobbestael.jpg?format=300w
414,,,MIMOSA,75008,France,brasserie/neobistrot,,,,2 rue Royale,https://images.squarespace-cdn.com/content/v1/6093fe458c37b128c4af4189/1633510557969-CONPM80TA872Y6KTL8HP/Gravelax+de+daurade.jpeg?format=300w
415,2.3402173,48.8802839,Coeur de Breizh - Paris 9,75009,France,crepes,,,,53 Rue des Martyrs,https://media-cdn.tripadvisor.com/media/photo-s/1b/d6/5f/5b/coeur-de-breizh.jpg
416,,,Coeur de Breizh - Paris 4,75004,France,crepes,,,,28 rue des lombards,https://media-cdn.tripadvisor.com/media/photo-s/1b/d6/5f/5b/coeur-de-breizh.jpg
417,,,Coeur de Breizh - Paris 14,75014,France,crepes,,,,16 rue d’Odessa,https://media-cdn.tripadvisor.com/media/photo-s/1b/d6/5f/5b/coeur-de-breizh.jpg
418,2.826625,49.4206877,Les Ferlempins,Compiègne,France,neobistrot,,,,13 Cr Guynemer,https://media-cdn.tripadvisor.com/media/photo-p/12/e8/42/1a/les-ferlempins.jpg
419,2.367232,48.863604,Le Clown Bar,75011,France,neobistrot/bar,,,,114 Rue Amelot,https://parisbymouth.com/wp-content/uploads/2017/07/Clown-Bar-restaurant-in-Paris-beef-tartare-anchovies-sureau.jpg
420,2.3718376,48.8645807,Aux Deux Amis,75011,France,neobistrot/bar,,,,45 Rue Oberkampf,https://i.pinimg.com/originals/4a/a6/bf/4aa6bf016e0c1461299fd2ed17992b6a.jpg
421,2.3362359,48.8661334,Restaurant Kunitoraya,75001,France,asiatique,,,,1 Rue Villédo,https://i.f1g.fr/media/ext/299x250_cropcenter/scope.lefigaro.fr/static/media/srcimages/photo_huge_lieu_r249594_1.jpg
422,,,Kunitoraya - Udon Bistro,75001,France,asiatique,,,,41 Rue de Richelieu,https://i.f1g.fr/media/ext/299x250_cropcenter/scope.lefigaro.fr/static/media/srcimages/photo_huge_lieu_r249594_1.jpg
423,2.3544485,48.8496723,Restaurant A.T,75005,France,neobistrot/gastronomique,,,,4bis Rue du Cardinal Lemoine,https://axwwgrkdco.cloudimg.io/v7/lefooding.com/medias/2021/07/10_58_31_209_restaurant_AT_paris_.jpg?width=672&height=448&optipress=3
424,2.349221,48.8644809,RESTAURANT ERH,75002,France,neobistrot/gastronomique,,,,11 Rue Tiquetonne,https://www.sortiraparis.com/images/80/68502/288951-erh-le-restaurant-tout-en-elegance-de-la-maison-du-sake-4.jpg
425,2.3271971,48.8561495,Racines des Prés,75007,France,neobistrot/gastronomique,,,,1 Rue de Gribeauval,https://media-cdn.tripadvisor.com/media/photo-s/17/bc/5f/0c/ceviche-de-daurade-radis.jpg
426,2.3466808,48.8816433,Faggio Rochechouart,75009,France,italien,,,,72 Rue de Rochechouart,https://www.groundcontrolparis.com/wp-content/uploads/2020/06/Faggio-Ground-Control-Paris-Fred-H-fred-h.com-e1592471989702.jpeg
427,,,Faggio Salumeria,75009,France,italien/vins/epicerie_fine,,,,72 Rue de Rochechouart,https://cdn.shopify.com/s/files/1/0535/1417/4651/files/salumeria1_480x480.png?v=1612260279
428,,,Faggio Osteria,75009,France,italien,,,,75 Rue de Rochechouart,https://cdn.shopify.com/s/files/1/0535/1417/4651/files/osteria1_480x480.png?v=1612260422
429,,,Faggio Panorama,75002,France,italien,,,,16 Passage des Panoramas,https://cdn.shopify.com/s/files/1/0535/1417/4651/files/panorama1_480x480.png?v=1612260479
430,2.3497837,48.8738436,Da Graziella,75010,France,italien,,,,43 Rue des Petites Écuries,https://media-cdn.tripadvisor.com/media/photo-s/14/b1/14/38/photo0jpg.jpg
431,2.3545001,48.8772256,Mamagoto,75010,France,neobistrot,,,,5 Rue des Petits Hôtels,https://res.cloudinary.com/tf-lab/image/upload/restaurant/3000c00f-53a1-4f60-be6b-4ae6c4b08854/d96abd29-c71c-496f-9d0b-dd625b527e59.jpg
432,2.383292,48.851282,Osteria Ferrara,75011,France,italien/neobistrot,,,,7 Rue du Dahomey,https://media-cdn.tripadvisor.com/media/photo-s/16/d9/8f/89/la-salle.jpg
433,2.3526883,48.8496889,Kitchen Ter(re),75005,France,neobistrot,,,,26 Bd Saint-Germain,https://media-cdn.tripadvisor.com/media/photo-s/1a/9a/8b/ab/credit-photo-louis-laurent.jpg
434,2.3644369,48.8537471,Vins Des Pyrenees,75004,France,brasserie,,,,25 Rue Beautreillis,https://d2ghx89bmumb3r.cloudfront.net/news-upload/2962/vins-des-pyrenees-paris-4-tiphaine-dubled-parisbouge-4-1986945746.jpg
435,2.3240873,48.8800841,Neva Cuisine,75008,France,gastronomique/neobistrot,,,,2 Rue de Berne,"https://static.wixstatic.com/media/e3a1d6_7b2a8b2e2b114718a1567b5c5727241f~mv2.jpg/v1/fill/w_640,h_426,al_c,q_80,usm_0.66_1.00_0.01/e3a1d6_7b2a8b2e2b114718a1567b5c5727241f~mv2.webp"
436,2.3254803,48.8476946,Quinsou,75006,France,neobistrot,,,,33 Rue de l'Abbé Grégoire,https://ugc.zenchef.com/3/5/3/5/2/0/1/5/0/7/9/3/8/1573645115_214/d7a0969202e13fbfe171b42df550d093.website.jpg
437,2.3377114,48.8530078,Yoshinori,75006,France,gastronomique/neobistrot,,,,18 Rue Grégoire de Tours,https://media-cdn.tripadvisor.com/media/photo-s/13/ee/f6/78/main-course.jpg
438,2.3304876,48.8528061,Le Bar des Prés,75006,France,asiatique/neobistrot/bar,,,,25 Rue du Dragon,https://www.lesrestos.com/img/media/notation/3-BarDesPres.jpg
439,2.3809707,48.8590191,cafe du coin,75011,France,brasserie/neobistrot,,,,9 Rue Camille Desmoulins,https://parisbymouth.com/wp-content/uploads/2018/07/cafe-du-coin-paris-75011-appetisers-1280x853.jpg
440,2.3417173,48.8714263,Racines,75002,France,gastronomique/neobistrot/italien,,,,8 Pass. des Panoramas,"https://static.lexpress.fr/medias_11743/w_1365,h_764,c_crop,x_0,y_685/w_1000,h_563,c_fill,g_north/v1517565906/racines-simone-tondo-tagliatelles-au-ragu_6012772.jpg"
441,2.352218,48.87957,Chez Michel,75010,France,brasserie/neobistrot,,,,10 Rue de Belzunce,https://www.restaurantchezmichel.fr/i/chez-michel-496062/3/4/8/6/2/6/1/5/0/2/7/9/6/1603616479_351/b9869c3bd70e1175e2f8ba06c125271b.jpg
442,2.3359041,48.8649757,Takara,75001,France,asiatique,,,,14 Rue Molière,https://media-cdn.tripadvisor.com/media/photo-s/11/bc/17/0a/anguille-grillee.jpg
443,2.3494468,48.8645163,Dalmata Pizza Montorgueil,75002,France,italien,,,,8 Rue Tiquetonne,https://media-cdn.tripadvisor.com/media/photo-p/16/4a/e4/13/black-delirium-is-famous.jpg
444,,,Giorgio,75011,France,italien,,,,21 RUE DE CHARONNE,https://www.sortiraparis.com/images/80/94371/656763-giorgio-13.jpg
445,2.377855,48.8656838,Chez Justine,75011,France,neobistrot/bar/italien,,,,96 Rue Oberkampf,https://images.squarespace-cdn.com/content/v1/5a7c5623ace864506cafe6e2/1520623791039-160Y7ZOW1T26MB94L4MM/5+Chez+Justine+1+.jpg?format=1000w
446,-1.5638833,43.4745482,Chéri Bibi,Biarritz,France,neobistrot/vins,,,,50 Rue d'Espagne,https://media-cdn.tripadvisor.com/media/photo-s/10/bb/e5/0b/cheri-bibi-la-conserverie.jpg
447,-1.5632375,43.450624,Elements,Bidart,France,neobistrot,,,,1247 Av. de Bayonne,https://encrypted-tbn0.gstatic.com/images?q=tbn:ANd9GcQwIQSoT4frjFYCwT8x2cr6gkMRJ_EBHfS0Dg&usqp=CAU
448,-1.5642333,43.4791419,Carøe,Biarritz,France,neobistrot,,,,51 Rue Gambetta,https://kindabreak.com/wp-content/uploads/2018/04/IMG_1808.jpg
449,12.596201,55.677933,Restaurant Barr,Copenhague,Danemark,gastronomique/neobistrot,,,,Strandgade 93  1401 København,https://gr-images.viamichelin.com/images/michelin_guide/large/542869_pro_8.jpg
450,12.5823338,55.6774964,Admiralgade 26,Copenhague,Danemark,neobistrot,,,,Admiralgade 26  1066 København,https://encrypted-tbn0.gstatic.com/images?q=tbn:ANd9GcQwBi9UfVsHV3gKOaTC1yHcf6z1YtdErpmi5w&usqp=CAU
451,12.5883076,55.6800202,Apollo Bar,Copenhague,Danemark,neobistrot/brunch/coffee_shop/vege,oui,,,Nyhavn 2  1051 København,https://24hkto1dz1v3ddyf93n0ye45-wpengine.netdna-ssl.com/wp-content/uploads/2018/08/Kinfolk_City_Guides_Copenhagen_Apollo-768x1024.jpg
452,12.6109365,55.6893475,La Banchina,Copenhague,Danemark,neobistrot/vege/brunch,,,,Refshalevej 141  1432 København,https://media.cntraveler.com/photos/5bfefa56597f4e4be66f8ecc/16:9/w_2560%2Cc_limit/La-Banchina_Anders-Bendixen_kage.jpg
453,,,POPL Burger,Copenhague,Danemark,sur_le_pouce/burger,,,,Strandgade 108  1401 København,https://poplburger.com/wp-content/uploads/2021/01/POPL_home_image-1-scaled.jpg
454,3.059011,50.628867,Restaurant Sébastopol,Lille,France,neobistrot,,,,1 Pl. Sébastopol,https://media-cdn.tripadvisor.com/media/photo-s/0f/48/84/a1/restaurant-sebastopol.jpg
455,3.0651635,50.6403954,Papà Raffaele,Lille,France,italien,,,,5 Rue Saint-Jacques,https://lilleaddict.fr/wordpress/wp-content/uploads/2020/03/img-20180412-210858-largejpg-550x400.jpg
456,2.3637096,48.8626592,Mr.T,75003,France,neobistrot/moyen_orient/sur_le_pouce,,,,38 Rue de Saintonge,https://media-cdn.tripadvisor.com/media/photo-s/18/34/21/30/potatoesso-good.jpg
457,2.3060051,48.8603009,Chez L'Ami Jean,75007,France,neobistrot/brasserie,,,,27 Rue Malar,https://www.orgyness.com/wp-content/uploads/2016/02/restaurant-ami-jean-paris-6.jpg
458,2.3605199,48.8700769,Les Résistants,75010,France,neobistrot/brunch,,,,16-18 Rue du Château d'Eau,https://www.paulette-magazine.com/assets/wysiwyg/les-resistants-food.PNG
459,2.3289756,48.8654493,Kinugawa Vendôme,75001,France,asiatique/gastronomique,,,,9 Rue du Mont Thabor,https://media-cdn.tripadvisor.com/media/photo-s/11/03/c1/f5/bar-a-cocktails.jpg
460,2.3186866,48.8502684,Aida,75007,France,asiatique,,,,1 Rue Pierre Leroux,https://media-cdn.tripadvisor.com/media/photo-s/02/69/53/43/filename-img-3605-jpg.jpg
461,2.3115407,48.8707341,Le Mermoz,75008,France,neobistrot,,,,16 Rue Jean Mermoz,https://media-cdn.tripadvisor.com/media/photo-s/15/8d/05/c3/cabillaud-semoule-a-la.jpg
462,2.3376223,48.8804054,Luz Verde,75009,France,sur_le_pouce,,,,24 Rue Henry Monnier,https://media-cdn.tripadvisor.com/media/photo-s/16/68/95/4d/ceviche-guacamole-frijoles.jpg
463,2.3781722,48.8615186,BRUTOS,75011,France,neobistrot,,,,5 Rue du Général Renault,https://media.vogue.fr/photos/60f5b39117788156874e3470/2:3/w_2560%2Cc_limit/207327253_330149101947320_6632565638444656234_n.jpg
464,2.3798916,48.8626015,Double Dragon,75011,France,asiatique/neobistrot,,,,52 Rue Saint-Maur,https://media-cdn.tripadvisor.com/media/photo-s/14/f9/26/66/photo5jpg.jpg
465,-1.8708151,48.6426099,Le Coquillage,Saint-Méloir-des-Ondes,France,gastronomique,,,,Le Buot,"https://static.lexpress.fr/medias_11900/w_1820,h_1365,c_crop,x_130,y_0/w_605,h_350,c_fill,g_north/v1532597248/le-coquillage-chateau-richeux-roellinger-1_6093251.jpg"
466,-1.9730193,48.5701336,Au Galichon,Saint-Suliac,France,crepes,oui,,,5 Rue de la Grande Cohue,https://media-cdn.tripadvisor.com/media/photo-s/1c/00/97/7c/au-galichon-saint-suliac.jpg
467,-2.0247719,48.6481443,Grain noir,Saint-Malo,France,crepes,oui,,,16 Rue de la Herse,https://media-cdn.tripadvisor.com/media/photo-s/0f/72/0b/b9/photo0jpg.jpg
468,-2.0242307,48.6496753,Tanpopo,Saint-Malo,France,asiatique,,,,5 Pl. de la Poissonnerie,https://media-cdn.tripadvisor.com/media/photo-s/0a/ba/72/2b/le-bento-3.jpg
469,-2.0252789,48.6480363,Otonali,Saint-Malo,France,asiatique/neobistrot,,,,6-8 Rue de l'Orme,https://encrypted-tbn0.gstatic.com/images?q=tbn:ANd9GcTTvfT_GasNDi_z3GKLaIbJt5nm0upLiimAHQ&usqp=CAU
470,-1.6692,43.3826485,Chez Mattin,Ciboure,France,brasserie/neobistrot,,,,63 Rue Evariste Baignol,
471,-1.663738,43.383212,Restaurant Arrantzaleak Ciboure,Ciboure,France,brasserie,,,,18 Av. Jean Poulou,https://media-cdn.tripadvisor.com/media/photo-s/13/c3/02/52/photo0jpg.jpg
472,-1.6625295,43.3889398,Instincts,Saint-Jean-de-Luz,France,neobistrot,,,,20 Rue Joseph Garat,https://media-cdn.tripadvisor.com/media/photo-p/12/d3/09/3b/amuse-bouche-sarrasin.jpg
473,-1.6592763,43.3873182,ETXE NAMI,Saint-Jean-de-Luz,France,neobistrot/asiatique,,,,11 Av. Jaureguiberry,https://media-cdn.tripadvisor.com/media/photo-s/0e/d2/cd/60/sur-place-ou-a-emporter.jpg
474,-1.5971828,43.4004191,Ostalapia,Ahetze,France,brasserie,oui,,,2621 Chem. d'Ostalapea,
475,-1.564284,43.47948,Saline Ceviche Bar,Biarritz,France,brasserie,,,,62 Rue Gambetta,https://media-cdn.tripadvisor.com/media/photo-s/15/0a/1c/6f/photo1jpg.jpg
476,2.3723359,48.874196,Mulino Mulé,75010,France,brasserie/neobistrot/italien,,,,25 Rue Sainte-Marthe,https://img.over-blog-kiwi.com/2/55/12/01/20191114/ob_ce82b8_rigatoni-tomates-ricotta-mulino-mule-r.jpg
477,2.367436,48.858096,Soon Grill,75003,France,asiatique,,,,78 Rue des Tournelles,https://www.doitinparis.com/files/2015/week_end/05/les_tables_qui_font_sensations/soon_plat.jpg
478,2.356489,48.8744506,Takaramono,75010,France,asiatique/neobistrot,,,,3 Rue de la Fidélité,https://media-cdn.tripadvisor.com/media/photo-s/19/c7/07/84/hummus-de-petits-pois.jpg
479,2.3691085,48.8651318,Le Rigmarole,75011,France,neobistrot,,,,10 Rue du Grand Prieuré,https://media-cdn.tripadvisor.com/media/photo-s/14/26/9b/c2/img-20180808-211000-largejpg.jpg
480,2.344001,48.87304,SUMiBi KAZ,75009,France,asiatique,,,,11 Rue de Montyon,https://cdn.eat-list.fr/establishment/photo/gallery_photo/75009-paris-9/sumibi-kaz_136521_00f.jpg
481,2.2997266,48.9142429,Youpi et Voilà,Gennevilliers,France,brasserie/neobistrot,,,,41 Av. des Grésillons,https://fulgurances.com/wp-content/uploads/2019/04/youpi2.jpg
482,2.3435805,48.8795969,OMA,75009,France,asiatique/neobistrot,,,,44 Rue Rodier,"https://static.lexpress.fr/medias_11790/w_2048,h_1146,c_crop,x_0,y_96/w_1000,h_563,c_fill,g_north/v1522232313/3482-oma_6036556.jpg"
483,2.3508061,48.8485595,CUCINA Mutualité,75005,France,italien,,,,20 Rue Saint-Victor,https://encrypted-tbn0.gstatic.com/images?q=tbn:ANd9GcSy6hteBeXauMMxzb1CMFGA05Y0YQzat3gQCA&usqp=CAU
484,2.350105,48.8732428,Restaurant eels,75010,France,neobistrot,,,,27 Rue d'Hauteville,https://media-cdn.tripadvisor.com/media/photo-s/18/8b/bf/75/eel-appetizer.jpg
485,2.3315551,48.8802354,Restaurant Addis Ethiopia,75009,France,moyen_orient,,,,52 Rue Blanche,https://media-cdn.tripadvisor.com/media/photo-p/12/44/a7/20/le-plat-du-pays-avec.jpg
487,2.2976485,48.8672796,Restaurant Substance,75116,France,neobistrot,,,,18 Rue de Chaillot,https://www.yonder.fr/sites/default/files/destinations/B-Restaurant-Substance-Filet%20mignon%20de%20cochon.jpg
488,2.388381,48.858151,Yard,75011,France,neobistrot/bar/vins,,,,6 Rue de Mont-Louis,https://media.timeout.com/images/105586977/image.jpg
489,2.3328924,48.8903736,Ētsi,75018,France,neobistrot,,,,23 Rue Eugène Carrière,https://1.bp.blogspot.com/-v7c2uBfC97M/WV0e3nbiDzI/AAAAAAAAn1o/BMQ4bDGO8DI6Uv8ZpH1W5QNLobadk_Y8ACLcBGAs/s1600/%25C4%2592tsi%2B2.jpg
490,2.350216,48.872198,Chez Minnà,75010,France,neobistrot,,,,20 Rue d'Hauteville,https://4.bp.blogspot.com/-YYJhoY0KYvA/W-gTe0URf4I/AAAAAAAAZuI/0VZ0d3AuYzkT4LgyAL8aGy0KDeBAdwKBgCLcBGAs/s1600/DSC_0427.jpg
491,2.321114,48.879344,Mandoobar,75008,France,asiatique/neobistrot,,,,7 Rue d'Édimbourg,https://www.lespetitestables.com/wp-content/uploads/Mandoobar-Paris-Recap.jpg
492,2.3222907,48.8286633,Les Petits Plats,75014,France,neobistrot,,,,39 Rue des Plantes,https://sortir.telerama.fr/sites/tr_master/files/styles/m_plus_640x360/public/assets/images/place/45/20/originale.jpg?itok=8o0b_K1e
493,2.235182,48.8852893,L'escargot 1903,92800,France,gastronomique/neobistrot,,,,94 Rue Sadi Carnot,https://media-cdn.tripadvisor.com/media/photo-s/15/29/a0/df/kumquat.jpg
494,2.3130887,48.8867428,Rooster par Frédéric Duca,75017,France,gastronomique/neobistrot,,,,137 Rue Cardinet,https://www.yonder.fr/sites/default/files/destinations/B-Rooster-par-Frederic-Duca-restaurant_6712_%C2%A9_YONDER.fr_.jpg
495,6.125707,45.89941,kamouraska,Annecy,France,neobistrot,,,,6 Pass. de la Cathédrale,https://media-cdn.tripadvisor.com/media/photo-p/12/b1/db/aa/this-is-a-great-hidden.jpg
496,6.171857,45.9227268,L'auberge Sur-Les-Bois,Annecy,France,neobistrot/gastronomique,,,,79 Rte de Thônes,"https://res.cloudinary.com/tf-lab/image/upload/w_600,h_337,c_fill,g_auto:subject,q_auto,f_auto/restaurant/444ff595-c7e8-48e3-8eaa-5bda78cd46ce/200ab2c0-9fc6-44ab-8377-8d49bdbde0a8.jpg"
497,4.8305047,45.7679975,La bijouterie,Lyon,France,neobistrot,,,,16 Rue Hippolyte Flandrin,https://media-cdn.tripadvisor.com/media/photo-s/1b/cb/f4/3b/photo0jpg.jpg
498,4.8455355,45.7682094,Les Apothicaires,Lyon,France,neobistrot,,,,23 Rue de Sèze,https://media-cdn.tripadvisor.com/media/photo-s/0b/75/72/83/les-apothicaires.jpg
